cod_comercio,sk_cliente,num_documento,nbr_comercio,nbr_direccion_comercio,Departamento,nbr_provincia_hexagono,nbr_distrito_hexagono,num_latitud,num_longitud,gpvabo,ntrx,grp_economico,gpv,gpv_lm,gpv_l2m,gpv_l3m,gpv_l4m,gpv_l5m,gpv_l6m,kam_final_reasignado,tipo_cartera_final,etiqueta,nbr_mcc,telefono
100000000005804,c874cad7fd3b30b89d0a48edb3cab718a3fc8a24cd2450df501bd37bc41125c6,20609257823,FERRETERIA DAGA EIRL,"AV. MARISCAL LA MAR, MIRAFLORES 15074, PERU",LIMA,LIMA,MIRAFLORES,-12.1140106,-77.044973,15058.8,131.0,DAGA & JIMENEZ,20355.0,15283.8,22780.2,16927.5,18568.0,12666.83,15783.1,GARY AQUINO,KAM PYME,ESTABLE,MATERIALES DE CONSTRUCCIÓN (NO CLASIFICADOS EN OTRA MCC),919291420
100000000043534,3a0d61e257c1bdd99c30a113a5b0b79a938bd7a7ddcbf38cb1490ed86bb52a8c,20536080199,FRUTIX LAMOLINA-2,"AV. SEPARADORA INDUSTRIAL & AV LOS FRUTALES, LA MOLINA 15023, PERU",LIMA,LIMA,LA MOLINA,-12.0648152,-76.96477999999999,15972.96,851.0,FRUTIX,119922.86,218437.1,227565.03,584915.67,556793.36,602666.85,640771.07,GUILLERMO MERINO,KAM BDN,TOP 10,PASTELERÍAS,954776734
100000000129206,096501b6f4d8ab15b1f881721ac0b3d2d5baac4a7025dcdad4672385235b8b7c,10470693385,SALUD NATURAL,"PISO 0, AV. CANADÁ 3644, LIMA 15021, PERU",LIMA,LIMA,SAN LUIS,-12.0805948,-76.9925772,475.0,7.0,SALUD NATURAL,880.9,890.0,843.0,1868.0,1303.0,1232.0,2409.0,JORGE RAMOS,KAM PYME,ESTABLE,FARMACÉUTICOS Y FARMACIAS (DROGUERIAS Y PERFUMERIAS),947531980
100000000136705,ae219209efee64cf6e555af42365eef73fa868e48100aa62d9382d8c796cfcc9,20558385007,EXEL PERU,"HF8H+9VJ URB. LOS CARDENALES PARK, LOS CARDENALES, JOSÉ LUIS BUSTAMANTE Y RIVERO 04009, PERU",AREQUIPA,AREQUIPA,JOSE LUIS BUSTAMANTE Y RIVERO,-16.4340303,-71.520353,188.0,1.0,EXEL PERU,19663.7,12405.7,34386.54,42993.9,22464.1,46967.2,29841.9,GUSTAVO MENDOCILLA,KAM PYME,ESTABLE,TIENDAS DE COSMÉTICOS,953283937
100000000054303,92755adff6607ab9ecce2f2a2055ff85ccfcce34ff581a9b3124a691f9bbdaff,20605393897,MARKET EL CRUCEÑITO,"ESTACIÓN ANGAMOS, SUR QUILLO, AV. ANGAMOS ESTE, SURQUILLO 15047, PERU",LIMA,LIMA,SURQUILLO,-12.1133132,-77.0251852,37906.4,914.0,EL CRUCEÑITO,63033.919,78680.0398,79253.28,72913.9108,76321.2568,80173.5,84053.65,VIANUSSA CANO,KAM PYME,ESTABLE,"MINIMARKETS, BODEGAS, SUPERMERCADOS",981573768
100000000101149,046cb48c417ea7ba9a42044e6c960c01258f9034b2f796811d430ed472a225d6,20506005133,SOLDAMUNDO,"CDRA 20, AV. LUIS BRAILLE 1225, LIMA 15081, PERU",LIMA,LIMA,LIMA,-12.0503611,-77.066846,0.0,0.0,SOLDAMUNDO,126353.3906,63063.8999,69459.32,60931.19,159792.9241,90065.2915,70612.65,ANABEL SANTAMARIA,KAM BDN,ESTABLE,SERVICIOS DE SOLDADURA,950044367
100000000136670,ceaf3208f1881c959e9b4c2e2a274468f0dd9d0ea8ce8c2e7f29c276ea2881a2,20523683081,VITAGEL,"INT 706 PISO 706, AV LA ENCALADA 1090, SANTIAGO DE SURCO 15023, PERU",LIMA,LIMA,SANTIAGO DE SURCO,-12.1058255,-76.9708342,64583.89,318.0,VITADOR SAC,25632.33,26583.2,55401.8,25180.13,21905.7,23387.85,43771.77,LIZET GUEVARA,KAM BDN,ESTABLE,OTRAS TIENDAS DE COMIDA,999999999
100000000005575,f1a76572e09ec0e133fd84e4642edb24103db13969964e4f32091da2335f6dd3,20517458687,IPALTEX EIRL -PIURA,"ICA, PIURA 20001, PERU",PIURA,PIURA,PIURA,-5.1956358,-80.6275766,22503.7,421.0,COMERCIO IPALTEX,18744.73,15445.33,28050.75,17246.4,15760.38,19540.69,14133.6,LUIS DE LUCIO,KAM PYME,ESTABLE,TIENDAS DE ROPA FAMILIAR,941098050
100000000088112,058af1a296391481e18e32a89c6780ef85361a1a08199639629aa084f7021cc1,20109709116,CADDIN,"D201, AV. DE LAS ARTES NTE. 1014, SAN BORJA 15037, PERU",LIMA,LIMA,SAN BORJA,-12.0899659,-76.99588100000001,6950.0,7.0,CADDIN,158513.0,86622.14,69777.78,41442.64,41295.0,16098.0,39038.86,YOSELIN TORNERO,KAM BDN,CRECIMIENTO,SUMINISTROS INDUSTRIALES (NO CLASIFICADOS EN OTRO MCC),945404361
100000000092624,ac2aab3b2c6c96bc22843b4539461ed32cc8a7ebfde00752353ea4d0b8545846,20606985046,CIDEAS ODONTO MEDICO SAC,"PISO 2, FRAY LUIS DE LEON 195, LA MOLINA 15012, PERU",LIMA,LIMA,LA MOLINA,-12.0622011,-76.9440924,0.0,0.0,CIDEAS ODONTO MEDICO,23938.2,19610.08,55948.0,28748.0,56186.389,23631.17,3980.0,JORGE CALLE,KAM PYME,ESTABLE,TIENDAS DE CUBIERTAS PARA PISOS.,981500885
100000000136022,3faf9151a3aa6d48d8e9fa0cda161cbb90e30bbedd976956693a82e5c2e1cef8,20554782958,VILLAMEDIC GROUP,"JR. HUIRACOCHA 1651, JESÚS MARÍA 15072, PERU",LIMA,LIMA,JESUS MARIA,-12.0791163,-77.0499833,625.0,12.0,VILLAMEDIC,677550.0,197760.0,54915.0,181795.0,90165.0,549497.0,3052162.0,GUILLERMO MERINO,KAM BDN,ESTABLE,OTROS SERVICIOS EDUCACIONALES,999999999
100000000136915,e69e4cfd8cb5c351c17d4ccdea57e7a969c431357a2ef811207d107f4c474c22,20379719440,NOBILITY GRAND HOTEL  ANGAMOS,"JR. PARURO 878, LIMA 15001, PERU",LIMA,LIMA,LIMA,-12.0522029,-77.02513979999999,106751.18,258.0,NOBILITY HOTELS,101179.274,120403.6,82781.61,38709.46,34546.5,1006341.6646,1270478.678,YOSELIN TORNERO,KAM BDN,ESTABLE,OTRO SERVICIOS PROFESIONALES,999999999
100000000053956,fd17797c26ff07d2a47b7316f478bd29dcc595d6e62a2d3173d93cb88000fca6,20600857933,REST. XIANG WEI LOU,"AV BLVRD DE SURCO 954, SAN BORJA 15037, PERU",LIMA,LIMA,SAN BORJA,-12.1017949,-76.99003119999999,2878.0,86.0,CHIFA KIN FU,165818.3,229835.91,198664.33,188754.894,165197.974,168385.8,192235.86,VICTOR ALVARADO,KAM PYME,ESTABLE,RESTAURANTES Y VIDA NOCTURNA,943511110
100000000122507,ca006895673c76d94af1b68308373269dd19cd7a0400bb6c82f1e0569aaa249c,20521617544,CITASONLINE,"AV. ALFREDO BENAVIDES 6, SANTIAGO DE SURCO 15039, PERU",LIMA,LIMA,SANTIAGO DE SURCO,-12.1312595,-76.9780463,5160.0,57.0,CITASONLINE,141717.4,120442.233,125951.591,126337.348,122784.1416,142594.715,128496.2182,VICTOR ALVARADO,KAM PYME,ESTABLE,DENTISTAS Y ORTODONTISTAS,945830443
100000000136428,e522209f65d08bdec627b1f34b77b55131d7e3d78f7d65cdec01aa4cf6ec242d,20601342872,FOREPLAY LINKS,"AV. LOS CONQUISTADORES 946, SAN ISIDRO 15073, PERU",LIMA,LIMA,SAN ISIDRO,-12.1058347,-77.037306,0.0,0.0,CONCEPT STORE,19864.35,30468.41,23562.23,19701.68,23941.86,28197.55,25079.74,LORENA RODAS,KAM PYME,ESTABLE,"SERVICIOS DE ADMINISTRACIÓN, CONSULTORÍA Y RELACIONES PÚBLICAS",971310356
100000000045419,81046204f075c716f5cd3d9a25238f614538514b4d90ac79c187317242cedd75,20608402251,PLAZA CHINA,"SANTIAGO DE HUAMÁN, VÍCTOR LARCO HERRERA 13009, PERU",LA LIBERTAD,TRUJILLO,VICTOR LARCO HERRERA,-8.1385046,-79.0397862,0.0,0.0,PLAZA CHINA,278266.62,420514.29,312615.97,271279.07,260399.07,301672.5,171039.91,SALOMÉ PRO,KAM PYME,TOP 10,"MINIMARKETS, BODEGAS, SUPERMERCADOS",995588888
100000000132948,17fd9f9f5121c4a935e08641d2eab3bfe35a0bcd8f4921001e0aade044c22b06,20605044591,LLAMAFOOD,"AV. PASEO DE LA REPÚBLICA 5728, MIRAFLORES 15074, PERU",LIMA,LIMA,MIRAFLORES,-12.1226687,-77.0253096,16290.63,300.0,LLAMAFOOD,93444.51,107752.41,91796.48,79194.69,78901.17,80999.07,87604.53,CYNTHIA CARRION,KAM PYME,CRECIMIENTO,OTRAS TIENDAS DE COMIDA,993923914
100000000122578,b08608eab6df9a3a354877b4e257d2470e8ba5cd523f6f420f549c5434730903,20601107571,DRA MARIAN POS,"DPTO 203, AV. PASEO DE LA REPÚBLICA 7921, SANTIAGO DE SURCO 15049, PERU",LIMA,LIMA,SANTIAGO DE SURCO,-12.1431155,-77.0002981,0.0,0.0,DRA MARIAN POS,144582.74,154994.8,102334.8,76667.9,47946.95,90217.9,87093.18,DANIEL LOVON,KAM PYME,CRECIMIENTO,TIENDAS MISCELÁNEAS DE ROPA Y ACCESORIOS,948026430
100000000129113,cf0a7891f6a2bd82d19e5eb716bb30b948d9e362ad1917ea203de42f84fb18aa,10181669182,FARMACIA FARMAMARKET,"AV. EL GOLF 360, VÍCTOR LARCO HERRERA 13009, PERU",LA LIBERTAD,TRUJILLO,VICTOR LARCO HERRERA,-8.1369651,-79.0350587,0.0,0.0,FARMACIA FARMAMARKET,30827.9,44417.0,34149.8,39607.5,37164.8,72469.7,92522.08,LUIS DE LUCIO,KAM PYME,ESTABLE,FARMACÉUTICOS Y FARMACIAS (DROGUERIAS Y PERFUMERIAS),934391474
100000000137229,a8f692c37e67714cb1fc7fd4ac01a591b48ea2323214aa2922b419edfaabfad4,20603595743,89ACEBICHADOS,"LA CONFRATERNIDAD, LOS OLIVOS 15307, PERU",LIMA,LIMA,LOS OLIVOS,-11.93377,-77.07455,0.0,0.0,89ACEBICHADOS,117044.55,142192.83,45524.1,0.0,0.0,0.0,0.0,WALTHER FAJARDO,KAM PYME,ESTABLE,RESTAURANTES Y VIDA NOCTURNA,957380113
100000000032000,f43ef7d6c5dd073b26af0dd2c513c4255841e79bc25f8c5446aa1ea15192173d,20606586231,MINIMARKET GIOVANNA,"FLORA TRISTAN 820, LIMA 15818, PERU",LIMA,LIMA,VILLA MARIA DEL TRIUNFO,-12.1899938,-76.92206759999999,401.2,22.0,MINIMARKET GIOVANNA,9324.1,14824.8,11726.3,11060.4,10697.7,10156.822,20147.1,ANABEL SANTAMARIA,KAM BDN,ESTABLE,"MINIMARKETS, BODEGAS, SUPERMERCADOS",931408121
100000000105510,d38f492ef48d402d73d5224e7cbeca63aa50d0cb33cafbf572e87ce7b5bf42bf,20546814379,AMANTANI PUEBLO SAC,"DPTO 109, AV. CIRCUNVALACIÓN DEL GOLF LOS INCAS 488, SANTIAGO DE SURCO 15023, PERU",LIMA,LIMA,SANTIAGO DE SURCO,-12.0765726,-76.95757689999999,1904.2,6.0,AMANTANI PUEBLO SAC,24156.87,23042.42,42847.632,27467.75,43714.877,51852.6,43695.53,GUILLERMO MERINO,KAM BDN,ESTABLE,TIENDAS MINORISTAS MISCELÁNEAS Y ESPECIALIZADAS,972286062
100000000136485,4cd7abbf82a52e14a7bde7f80404d87760790f85ae16ea3119679ae2a14f0a4b,20608507494,LA MORA WEB,"R2X7+27V, JR. FRANCISCO JAVIER MARIÁTEGUI, SANTIAGO DE SURCO 15056, PERU",LIMA,LIMA,SANTIAGO DE SURCO,-12.1523997,-76.9868303,32161.5,547.0,LA MORA,26283.6,75572.66,41983.9,40976.1,32783.1,33871.01,34611.2,DANIEL LOVON,KAM PYME,ESTABLE,PASTELERÍAS,999999999
100000000044920,d5a9a7a63fb3bd8ce78bbf59f006299bcc104ff27bad2fe79ff19bac262067a0,20611599537,CORNER MARINO,"AV. MILITAR 1799, LINCE 15046, PERU",LIMA,LIMA,LINCE,-12.081912,-77.0316299,30814.1,298.0,CORNER MARINO SAC,219158.95,258434.55,208424.2,165112.75,153721.4,162459.65,169506.86,GARY AQUINO,KAM PYME,ESTABLE,RESTAURANTES Y VIDA NOCTURNA,999968205
100000000105024,1b0bf4881b143cad399c8f53df625b4f18c7d0c21f966299bdf6036953028c97,20544376331,MACCHIA,"AV. ALFREDO BENAVIDES 2059, LIMA 15048, PERU",LIMA,LIMA,MIRAFLORES,-12.1272557,-77.01087460000001,1118.0,11.0,MACCHIA CAVENECIA,115013.91,150325.05,117310.22,117866.02,122905.03,23873.85,818.0,AARÓN GARCÍA,KAM PYME,CRECIMIENTO,RESTAURANTES Y VIDA NOCTURNA,984179425
100000000092402,309aa645eff9413b82c40830ca5952974f06cbcd20bc9292a991240bd72583ef,20600753976,GQR AUTOPARTES SAC,"AV. IQUITOS 257, LA VICTORIA 15033, PERU",LIMA,LIMA,LA VICTORIA,-12.0613794,-77.0309341,48633.0,214.0,CIA IMPORT DE REPUESTOS KONIN SAC,103870.2,100073.85,92963.96,117717.95,179571.94,163255.58,174625.27,YOSELIN TORNERO,KAM BDN,ESTABLE,TIENDAS DE PARTES Y ACCESORIOS AUTOMOTRICES.,966376188
100000000030626,f6217772e4bc1e8af489048ffda387cf0909b89eff925dae36ecab788b8129b3,10402641610,MINIMARKET GIOVANNA ,"SAN FRANCISCO DE TABLADA DE LURIN ZONA ANTIGUA, VILLA MARÍA DEL TRIUNFO, PERU",LIMA,LIMA,VILLA MARIA DEL TRIUNFO,-12.1953284,-76.9268541,515.0,35.0,MINIMARKET GIOVANNA,7753.6694,9961.74,9977.5,8459.5,7247.9,8041.8,9143.7,ANABEL SANTAMARIA,KAM BDN,ESTABLE,"MINIMARKETS, BODEGAS, SUPERMERCADOS",931408121
100000000120825,31480b36a6f5985a272eb91f6492d4c789ac79437c002071a5b8cb133cd08313,10429821865,HOSTING KAM,"JRON ECONOMISTAS MZ K15 LTE 43, SAN JUAN DE LURIGANCHO",LIMA,LIMA,SAN JUAN DE LURIGANCHO,-11.9638144,-76.9894212,0.0,0.0,HOSTING,0.0,0.0,0.0,0.0,0.0,0.0,9.0,AARÓN GARCÍA,KAM PYME,ESTABLE,OTRO SERVICIOS PROFESIONALES,999999999
100000000146226,5c615a36143cb04012e490c796f02130b9926a68b9f3bbef28fc636cbb0735a9,20601712726,PORTOBELLO PASTAS CHICKEN GRILL,"AV. PETIT THOUARS 1107, LIMA 15046, PERU",LIMA,LIMA,LIMA,-12.075635,-77.03451299999999,43000.8,969.0,PORTOBELLO PASTA GRILL,59081.47,193236.01,168002.15,36387.88,0.0,0.0,0.0,JENIFER LLAMPASI,KAM PYME,ESTABLE,RESTAURANTES Y VIDA NOCTURNA,999999999
100000000108694,16311bc021721e60f6e1b74d77814707565f62e7bc93c18aec9d89af5fd69218,20607512079,COMERCIAL FERNAR,"ATE, PERU",LIMA,LIMA,ATE,-12.023711,-76.8940169,0.0,0.0,AVALANCH,5706.8,27803.2,8587.3,5765.6,8163.4,6144.5,10182.1,RODRIGO RIVERA,KAM BDN,TOP 10,TIENDAS DE ROPA FAMILIAR,944475859
100000000096532,8eee969f1ae0822e3bb50097bf9618c7966cfa99e06c1a0bcceca7bfc5aa6ac6,20101341616,GERMANIA AUTOMOTRIZ S.A.C. - SAN LUIS,"AV. ANGAMOS ESTE 1869, SURQUILLO 15036, PERU",LIMA,LIMA,SAN BORJA,-12.1121255,-77.010432,32799.15,27.0,GERMANIA AUTOMOTRIZ S.A.C. - SURQUILLO,3183.9644,0.0,0.0,0.0,0.0,126.77,3616.642,ANABEL SANTAMARIA,KAM BDN,ESTABLE,"COMERCIANTES DE AUTOS Y CAMIONES (NUEVOS Y USADOS) VENTAS, SERVICIO, REPARACIONES, PARTES Y ARRENDAMIENTO.",968206067
100000000118789,770e2d76845e6c7877bb3ab7563202147a9f970de4cad9f6e80f31318e164d74,20601363861,SOFT,"AV EL POLO 670, EL POLO 1, SANTIAGO DE SURCO 15023, PERU",LIMA,LIMA,SANTIAGO DE SURCO,-12.1013902,-76.970967,286423.22,522.0,SOFT,121877.323,234248.57,229045.74,186879.1,191072.33,230442.47,210374.2,LORENA RODAS,KAM PYME,ESTABLE,ALMACENES DE SUMINISTROS PARA EL HOGAR,946274580
100000000052740,819d1d7501798f6fe6b3f74b8b37d2bd4bcfb0ef44ebbaa2b0fd6b4093ae9aaf,10072528714,LAS RUEDAS DE PACHACAMAC,"J LOTE, PACHACAMAC 115, LIMA 15332, PERU",LIMA,LIMA,INDEPENDENCIA,-11.9842645,-77.0545873,1086.8,6.0,LAS RUEDAS DE PACHACAMAC,22709.5,21746.9,17665.0,25477.98,32533.0,51736.2,52096.4,ANABEL SANTAMARIA,KAM BDN,ESTABLE,RESTAURANTES Y VIDA NOCTURNA,999215047
100000000153265,fd4ca35941b16b042b4212c1e8d88f03882cf5d97befb6d53e61e7582ccff20a,20522172023,AUTOTAXI SATELITAL CORP,"AV. ELMER FAUCETT 2880, CALLAO 07041, PERU",CALLAO,CALLAO,CALLAO,-12.0286667,-77.10220799999999,0.0,0.0,SATELITAL,263654.54,348187.05,455372.37,473135.27,546214.97,601934.09,585258.0,ANABEL SANTAMARIA,KAM BDN,ESTABLE,"SERVICIOS DE TELECOMUNICACIÓN INCLUYENDO LLAMADAS LOCALES Y DE LARGA DISTANCIA, LLAMADAS CON TARJETA DE CRÉDITO A TRAVÉS DE TELÉFONOS CON LECTORA DE BANDA MAGNÉTICA Y SERVICIOS DE FAX.",999999999
100000000055039,029c00c8e56867ac2089d6b5777d11eefc7f6356e03b1b6ba968df2e86f08d10,10703856905,CARNICERIA DEL MOLINO,"30, AV LA ENCALADA 704, SANTIAGO DE SURCO 15023, PERU",LIMA,LIMA,SANTIAGO DE SURCO,-12.1087331,-76.9721222,101978.58,1325.0,CARNICERIA DEL MOLINO,101682.66,148540.284,125294.61,135145.0,135666.95,134959.8341,129734.62,LIZET GUEVARA,KAM BDN,ESTABLE,"MERCADOS Y MINORISTAS, ALMACENAJE REFRIGERADO Y PRODUCTOS A GRANEL DE CARNE.",998331438
100000000105515,c1e422739ae734ca7088dabc567ef5dc4d3272c42f71a335988bdae8be4d434f,20555887672,EL AUTENTICO SABOR TRUJILLANO S.A.C.,"AV. GRAL. EUGENIO GARZÓN 1465, JESÚS MARÍA 15072, PERU",LIMA,LIMA,JESUS MARIA,-12.0746779,-77.051486,26058.94,286.0,EL AUTENTICO SABOR TRUJILLANO S.A.C.,107796.0,134795.0,114684.0,87724.2,99105.8,99682.3,113197.8,LORENA RODAS,KAM PYME,ESTABLE,PASTELERÍAS,999111896
100000000105142,95b530df6cc413fd28e52eb538f2329841914a31b1bd77ec03a21d15940a2242,20602262597,MINIMAL,AV. JORGE VANDERGHEN 355 102 CHACARILLA SANTA CRUZ SAN,LIMA,LIMA,MIRAFLORES,-12.1102994,-77.04039745,9715.7,72.0,MINIMAL,45002.0,45928.0,58413.0,22416.0,27309.6,39579.0,56599.0,DANIEL LOVON,KAM PYME,ESTABLE,TIENDAS DE ROPA PARA DAMAS,957608661
79304,68652b8425d5b5e3e7701aa0a762ea2044a513a084733491ba8f78679d680b4a,20481253013,MARINIS AV LARCO 1039 URB SAN ANDRES V ETAPA,"AV. LARCO, VÍCTOR LARCO HERRERA 13009, PERU",LA LIBERTAD,TRUJILLO,VICTOR LARCO HERRERA,-8.1348585,-79.0480572,0.0,0.0,MARINIS,25314.0,42538.9,35698.2,38218.9,31831.3,31654.02,35925.38,LUIS DE LUCIO,KAM PYME,ESTABLE,PASTELERÍAS,951423209
100000000135618,636cdc8756ead037dca2a2eeae855fed6c84d41acd76bcf4981622bec7533d40,20382748566,FASTCO,"OFICINA 2601, AV. JAVIER PRADO ESTE 492, SAN ISIDRO 15046, PERU",LIMA,LIMA,LINCE,-12.0920852,-77.0284248,0.0,0.0,INTERSEGURO,4124048.6128,5045286.857,5071885.3348,5275344.6715,5434281.9104,5386594.4701,5405288.7843,ARIANA HUERTA,KAM BE,TOP 10,MERCADEO DIRECTO - SERVICIOS DE SEGUROS,999999999
100000000088469,ff1d108d60f87d018700aaee5039d5d87ff21b8734a2dbf100c4892b5af93b60,20545347793,EUROPA SERVICE S.A.C.,"AV. SANTIAGO DE SURCO 3706, SANTIAGO DE SURCO 15049, PERU",LIMA,LIMA,SANTIAGO DE SURCO,-12.1356891,-76.99669659999999,46820.1,32.0,EUROPA SERVICE S.A.C.,84502.397,62526.4039,89554.4513,63216.3387,34673.5039,55189.9491,72580.3731,MONICA VALENZUELA,KAM PYME,ESTABLE,TIENDAS DE PARTES Y ACCESORIOS AUTOMOTRICES.,940143977
100000000093005,43feb7229d701bbe96301c60fa9c94e42163177cf20559b6722ba71ab81a8266,20549145397,SOPORTE MULTIMEDIA E.I.R.L.,"AV. PETIT THOUARS 5356, MIRAFLORES 15074, PERU",LIMA,LIMA,MIRAFLORES,-12.1163696,-77.0285083,43974.0,18.0,SOPORTE MULTIMEDIA,55197.0,180267.564,33155.02,53210.99,29135.0,30202.0,32554.99,LORENA RODAS,KAM PYME,ESTABLE,"MANTENIMIENTO, REPARACIÓN Y SERVICIOS INFORMÁTICOS (NO CLASIFICADOS EN OTRO MCC)",995038450
100000000108136,d10c7a6ba7d352518c582d87b490516c9516e19cba8181dda5241feb2e3f2dec,20545860601,SABORES PERUANOS - LA MOLINA,"AV. JAVIER PRADO ESTE 6400, LIMA 15024, PERU",LIMA,LIMA,LA MOLINA,-12.0693718,-76.9497457,29665.15,201.0,SABORES PERUANOS,28513.11,41589.45,33232.9,29292.54,29382.21,37657.1,22666.7,LORENA RODAS,KAM PYME,ESTABLE,PASTELERÍAS,949735969
100000000003222,33e2928c4b039aa263ae31eadf08d13f0fcde8b6d9d6a91571bc23e988f606cb,10419860552,SALUD NATURAL,"AV. VICTOR RAUL HAYA DE LA TORRE (JOSÉ PARDO), 738, CHIMBOTE 02803, PERU",ANCASH,SANTA,CHIMBOTE,-9.0764563,-78.5908906,1559.064,27.0,SALUD NATURAL,4097.0,3243.0,3423.0,6543.0,4557.0,4903.0,4192.0,JORGE RAMOS,KAM PYME,ESTABLE,OTRAS TIENDAS DE COMIDA,916665747
100000000101481,2016f9c99ebafddeceb1b685bf0355dd9a0c900279120ce9a0ba9177d742f12c,20605500936,SUPER JIMMYS CAMINO DEL INCA,"PISO 1, AV. CAMINOS DEL INCA 3008, SANTIAGO DE SURCO 15039, PERU",LIMA,LIMA,SANTIAGO DE SURCO,-12.1412315,-76.9850593,3753.86,110.0,SUPER JIMMYS SAN ROQUE,15853.84,34766.24,28224.9,25138.35,18812.17,30525.31,37651.08,LUIS PEREZ,KAM BDN,ESTABLE,RESTAURANTES DE COMIDA RAPIDA,983320328
100000000108182,f0a03f5e744d70b98ddd80701c9c17f11645694cd7e27d0ef3b2b75572d9f2cc,20480564660,LA TABERNA DISTRIBUCIONES - LATINA,"MANUEL SEOANE, PIURA 20007, PERU",PIURA,PIURA,PIURA,-5.192246,-80.6494183,0.0,0.0,LA TABERNA DISTRIBUCIONES S.A.C,84820.87,321286.11,153042.74,112132.43,88871.03,103111.21,135007.67,ARIANA HUERTA,KAM BE,ESTABLE,PRODUCTOS PERECEDEROS (NO CLASIFICADOS EN OTRA MCC),920027526
100000000118800,d594aa3a5e653f8e059a2bc5a24dba349a56df159740630df3c1ab682c20dcc6,20601805082,CATA LINK,"OF. 502, AV. EL DERBY 254, SANTIAGO DE SURCO 15023, PERU",LIMA,LIMA,SANTIAGO DE SURCO,-12.0977116,-76.9726771,6000.0,12.0,CATA RESTOBAR,147768.53,154050.6053,143237.78,123569.21,144215.2,120948.04,159809.36,AARÓN GARCÍA,KAM PYME,CRECIMIENTO,RESTAURANTES Y VIDA NOCTURNA,914434114
100000000119667,eba3e3fe14e073d776fa386a8817135fbd02d62a112d1287f08b3af46991c9a5,10088775991,MINIMARKET PILAR,"AV. JAVIER PRADO ESTE, LA MOLINA, PERU",LIMA,LIMA,LA MOLINA,-12.0714471,-76.956626,36010.32,1651.0,MINIMARKET PILAR,5405.82,55390.899,55876.33,57875.19,52571.3,55371.21,42030.8,GUSTAVO MENDOCILLA,KAM PYME,ESTABLE,"MINIMARKETS, BODEGAS, SUPERMERCADOS",944557906
100000000136059,fe27ef75db5cd6c88b75f551306667a10c96ea0915e952a85226804373361433,20602252656,TIENDA AGUAS VERDES,"MIGUEL DASSO 406, LIMA 15034, PERU",LIMA,LIMA,LA VICTORIA,-12.0773914,-77.01847409999999,21037.5,84.0,HIPERATOS,142711.64,610844.34,296535.66,192816.26,242084.35,260253.42,259794.76,YOSELIN TORNERO,KAM BDN,ESTABLE,CALZADO COMERCIAL,938884347
100000000142273,5831f630653199bb16967e9a822eadb48a7c99e7bdffc211044b56e600aced9f,20602845941,TEKOS,"PISO 2, AV. GRAN CHIMU 265, SAN JUAN DE LURIGANCHO 15401, PERU",LIMA,LIMA,SAN JUAN DE LURIGANCHO,-12.0275727,-77.0091968,0.0,0.0,TERREX A INVERSIONES KLMA EIRL,14438.7,35364.83,15977.3,14924.27,16266.79,9611.0,15072.3,LORENA RODAS,KAM PYME,ESTABLE,CALZADO COMERCIAL,989594767
100000000048747,a5fa70145cf2d220c2e3be726c1aa91dfa9c5e2ca600cb603367ca1efe900d67,20612745260,IMPORTADORA PANDA,"IV CENTENARIO, AREQUIPA 04001, PERU",AREQUIPA,AREQUIPA,AREQUIPA,-16.4076792,-71.5345603,32202.133,1562.0,IMPORTADORA PANDA,30113.67,50669.75,26945.0,17796.24,34392.9,28795.7,26718.55,VIANUSSA CANO,KAM PYME,ESTABLE,ELECTRODOMÉSTICOS,981333284
100000000051580,75c411e913cbbb718e7cd8095913b86792007c1b95c0404b4fc29332566a3160,15516795040,CHIFA WHEN WHA XU,"AV. JUAN VELASCO ALVARADO 709, VILLA EL SALVADOR 15831, PERU",LIMA,LIMA,VILLA EL SALVADOR,-12.207152,-76.9389413,55431.0,745.0,CHIFA WHEN WHA,38267.9,47502.5,40637.5,39490.0,39362.7,107122.5,100261.044,CYNTHIA CARRION,KAM PYME,ESTABLE,RESTAURANTES Y VIDA NOCTURNA,989692968
100000000092863,d3a9a46a84d052fa338553f91e70fb6a772933caf568e2383708dd9a054a11b7,20611217570,CENTRO MÉDICO CALLAO,"PISO 1291, LOS TOPACIOS 1291, BELLAVISTA 07011, PERU",CALLAO,CALLAO,BELLAVISTA,-12.0628479,-77.1220601,0.0,0.0,CENTRO MÉDICO CALLAO,57308.0,50533.275,73302.0,71794.0,74901.0,69577.0,58266.2,LIZET GUEVARA,KAM BDN,ESTABLE,HOSPITALES (CLINICAS Y CENTROS MEDICOS),902208605
100000000109021,ff76a63af7f2941338e59f8cb6292d7a77814b4564090750fde1771040e73c21,20611323515,INMOBILIARIA RAMADA,"PISO 1, AV. PRIMAVERA 517, SAN BORJA 15037, PERU",LIMA,LIMA,SANTIAGO DE SURCO,-12.1103956,-76.9880122,11277.0,5.0,ACTIVA HOLDING,65037.1366,8671.8756,79822.6813,52436.6901,5113.66,29666.7767,5011.6761,YOSELIN TORNERO,KAM BDN,TOP 10,AGENTES DE BIENES INMOBILIARIOS - ALQUILER,999099644
152776,c80049ae041038607a8ed8ac14c9719e917c2cd38341705429712cd1ec23b88e,20604690685,LUOXO,"CA. LOS EUCALIPTOS 550, SAN ISIDRO 15076, PERU",LIMA,LIMA,SAN ISIDRO,-12.0975675,-77.0482918,0.0,0.0,LUOXO SAC,113760.636,210879.049,268397.5092,247785.6468,222810.2617,336908.9503,277900.5533,DANIEL LOVON,KAM PYME,ESTABLE,"HOTELES, MOTELES Y POSADAS",949331587
100000000087416,dfb090ca560b5b648308c8f7c2ad592a20f902d76a23b72e9b7ea8a82ad62242,10448181818,DR. FRANCO GONGORA,"INT 1201, C. MONTE ROSA 240, SANTIAGO DE SURCO 15038, PERU",LIMA,LIMA,SANTIAGO DE SURCO,-12.1122263,-76.9902331,7373.8,13.0,IDENT MAGDALENA,10343.92,3188.34,10038.36,22018.41,15368.24,9349.74,10064.76,YOSELIN TORNERO,KAM BDN,ESTABLE,DENTISTAS Y ORTODONTISTAS,992145890
100000000107833,e930229d6cea9a426cf961eec9a64e533bb028d6c31fa725f883bf71c8b93743,10733117406,HYPNOTIC 2,"PISO 1, SUECIA 354, CUSCO 08002, PERU",CUSCO,CUSCO,CUSCO,-13.5148289,-71.9796313,0.0,0.0,GINZA,321092.78,400523.32,421865.64,414656.05,394555.44,283614.25,148658.36,VANESA UMERES,KAM PYME,ESTABLE,"LUGARES PARA BEBER (BEBIDAS ALCOHÓLICAS) – BARES, TABERNAS, CLUBES NOCTURNOS, SALAS DE CÓCTELES Y DISCOTECAS. (DISCOTECAS, PEÑAS, BARES Y PUB'S)",986211111
100000000130185,24a7470edc8082fe84caa8e00fd2975d5e6b7448807bb78a77b7e689c992e19b,20601966043,MOH LINK,"PL. 27 DE NOVIEMBRE 220, SAN ISIDRO 15046, PERU",LIMA,LIMA,SAN ISIDRO,-12.0987561,-77.0296224,0.0,0.0,EMPRESA ADMINISTRADORA MOH S.A.C.,25689.5,105896.5,98154.0,88721.5,100354.5,103014.5,91666.0,RODRIGO RIVERA,KAM BDN,PRECHURN,OTRO SERVICIOS PROFESIONALES,999999999
100000000009921,e7b9cd8a927a02e7c1f6dcbc61294e1617abb9725cb324869475ac991c1b077c,20311815262,EMANSAMO S.R.L.,"PISO 1, SAN PEDRO 139, AREQUIPA 04001, PERU",AREQUIPA,AREQUIPA,AREQUIPA,-16.3974012,-71.529622,2865.542,10.0,LA HUERTA DEL LONCCO,95.0,341.5492,13553.2173,641.787,423.0,0.0,73.0,LUIS PEREZ,KAM BDN,ESTABLE,"HOTELES, MOTELES Y POSADAS",979359204
100000000055806,1251186c5866e8ff294f094b79ab246ac13fe7919b60df51b4f8e76ad7b8e0d9,20529938064,TINTOS & HIELOS SCRL,"AV. LUIS MONTERO S/N URB. MIRAFLORES, R94J+WRM, CASTILLA, PIURA 20002, PERU",PIURA,PIURA,CASTILLA,-5.192673699999999,-80.61795900000001,4396.78,5.0,TINTOS & HIELOS SCRL,12946.52,6565.1,82600.78,29490.66,16710.9,47995.1,68475.32,GUSTAVO MENDOCILLA,KAM PYME,ESTABLE,"LICORERÍAS – CERVEZA, VINOS Y BEBIDAS ALCOHÓLICAS",969993650
100000000095967,b2608e89529470bd0ee34b2bd5c59af5ed5ef79b23383564ae1762bc5eb37d98,20606635070,HUACA LUNA RESTAURANT,"AV. VENEZUELA 825, LIMA 15082, PERU",LIMA,LIMA,BREÑA,-12.0549141,-77.04535419999999,180799.73,1226.0,HUACA LUNA RESTAURANT,185933.703,334211.6,248565.5,208808.8,206377.86,205982.2,239236.84,PILAR PINEDA,KAM PYME,ESTABLE,PASTELERÍAS,981423180
100000000098448,4d0ad18fd57e4b6c7c321c010e2a824924492425413dce42fb1fc6c8a224f05a,20600887701,POLLERÍA CAPORAL,"AV VÍA DE EVITAMIENTO NTE 1857, CAJAMARCA 06001, PERU",CAJAMARCA,CAJAMARCA,CAJAMARCA,-7.1476837,-78.5075196,0.0,0.0,POLLERÍA CAPORAL,222201.5,303110.5,253649.88,222323.15,214376.18,225290.0,225810.5,GUSTAVO MENDOCILLA,KAM PYME,ESTABLE,RESTAURANTES Y VIDA NOCTURNA,931343059
100000000098926,f55f37e4abe8f97ca3be439d05ffbe76c38d02cb75b499c73e01692e8a494bb4,10400118171,SHANGRI-LA NATURAL,"JIRÓN BOLIVAR 186, TRUJILLO 13001, PERU",LA LIBERTAD,TRUJILLO,TRUJILLO,-8.1156469,-79.0294608,83405.55,893.0,SHANGRI-LA NATURAL,50709.6,61289.35,65253.4,69033.15,79945.1,72864.3,75935.1,LUIS DE LUCIO,KAM PYME,ESTABLE,"MINIMARKETS, BODEGAS, SUPERMERCADOS",919576684
100000000100752,44b577aedb9309b50e6103d53432f90283c774a34319ae09f3526430199542ec,10419122446,SALUD NATURAL,"SURQUILLO, PERU",LIMA,LIMA,SURQUILLO,-12.1124923,-77.0122039,4997.0,51.0,SALUD NATURAL,5766.0,5739.0,5608.0,5433.0,11702.0,9977.0,11313.0,JORGE RAMOS,KAM PYME,ESTABLE,FARMACÉUTICOS Y FARMACIAS (DROGUERIAS Y PERFUMERIAS),952330283
100000000023437,7e54bceb0f278fdb037173886c5326b4dddb3e15cd9d7fe95cba8d07902840a8,20393421038,CHEZ MAGGY,"JR INMACULADA 643, PUCALLPA 25001, PERU",UCAYALI,CORONEL PORTILLO,CALLERIA,-8.3799341,-74.5301358,0.0,0.0,CHEZ MAGGY,43689.0,56960.9,42652.0,41541.668,36784.0,43392.5,44868.5,MONICA VALENZUELA,KAM PYME,ESTABLE,RESTAURANTES Y VIDA NOCTURNA,961631537
100000000054520,cc58048f4fbc6cb61ac04af04c16c83b18f2e9469dbec73123d88e1f3fbcd260,20611955716,HOTEL REAL PARIS II,"PISO 2, AV. AVIACIÓN 2494, SAN BORJA 15036, PERU",LIMA,LIMA,SAN BORJA,-12.0907011,-77.0034479,96517.965,1131.0,HOTEL REAL PARIS II,79920.0,138136.0,143401.0,131525.0,120354.0,130980.0,110067.0,VICTOR ALVARADO,KAM PYME,ESTABLE,"HOTELES, MOTELES Y POSADAS",970941644
100000000085858,db5a62e8a7b77bd1925ed6e2a557e879b24f1fd0dc6d08162867479e9baaa3cf,20601102049,CAMPS PIZZA,"ATE, PERU",LIMA,LIMA,ATE,-12.023711,-76.8940169,25565.3,719.0,CAMPS PIZZA,53419.0,60248.9,57376.5,47515.5,51290.5,70903.7,72777.0,JENIFER LLAMPASI,KAM PYME,ESTABLE,RESTAURANTES Y VIDA NOCTURNA,993428422
100000000092496,10a8de442d5b8b531dee263014a47515bbe9b25334cececbd1da0c628e6032c7,20604977186,LICORERIA GIANDER,"A, CALLAO 07031, PERU",CALLAO,CALLAO,CALLAO,-11.9978348,-77.1205612,122190.4,1719.0,LICORERIA GIANDER,140041.2651,158479.0979,156726.37,160738.78,123408.1439,152677.42,135097.17,PILAR PINEDA,KAM PYME,CRECIMIENTO,PRODUCTOS PERECEDEROS (NO CLASIFICADOS EN OTRA MCC),931702315
100000000108098,10d0e52741726ce483552e0370204bc9e8f3b6b543cafad2e793160673cda8aa,20505851316,MARROQUINERA VALENCIA LINK,"CA. TERRAZOS 1689, SAN JUAN DE LURIGANCHO 15431, PERU",LIMA,LIMA,SAN JUAN DE LURIGANCHO,-12.0040206,-77.001835,0.0,0.0,VALENCIA LEATHER,56659.2,131775.85,55549.5,38475.37,43110.1,46806.5,40380.7,LUIS PEREZ,KAM BDN,TOP 10,"PRODUCTOS POR PIEZA, NOCIONES Y OTROS PRODUCTOS SECOS",993794086
100000000016245,3d9322862b9b79169d31e6439f3bdc30f74a10e231370cf608d292870c4e4722,20122090290,FREEWAY,"INT 205, CENTRO COMERCIAL ARENALES, AV. GRAL. JUAN ANTONIO ÁLVAREZ DE ARENALES 1737, LINCE 15046, PERU",LIMA,LIMA,LINCE,-12.0819773,-77.0356669,57042.178,111.0,FREEWAY,62618.0,141794.55,35889.0,31434.0,24483.0,37884.0,25535.0,JORGE RAMOS,KAM PYME,ESTABLE,TIENDAS DE MERCANCÍAS DEPORTIVAS,987090955
100000000026835,6c93f7af1f46f6305eb3f741c3ede04a61e0bbf6e793c855dd19d52acdf9a462,20610978658,MUNDO RUEDAS,"AV. NICOLÁS AYLLÓN 212, LIMA 15018, PERU",LIMA,LIMA,LIMA,-12.0563557,-77.0122536,60865.795,535.0,MUNDO RUEDAS,21177.19,43422.34,11827.52,40112.71,45473.18,33265.53,49683.23,DANIEL LOVON,KAM PYME,ESTABLE,TIENDAS DE PARTES Y ACCESORIOS AUTOMOTRICES.,991008004
100000000033277,22def025628d9e963b5ea74e9aa96efccea4450d7fd1c5ff9fa7c4190650438c,20604093580,MI CELU -JR SARGENTO LORES 253,"PISO 2, AV. JOSÉ ABELARDO QUIÑONES 1010, IQUITOS 16001, PERU",LORETO,MAYNAS,SAN JUAN BAUTISTA,-3.7652168,-73.2644177,4711.121,21.0,ZONA MOVIL,16166.5,29270.5,22084.0,22012.9,24969.0,43383.99,46190.3,GUSTAVO MENDOCILLA,KAM PYME,ESTABLE,SOFTWARE ,982763010
100000000076422,6ce3d946ea166ae9e3cd4ceee4588aeca0d506fd1a2e6648ff481c59e78fc16d,20612689548,GRUPO NEYRA S.A.C.,"PISO 2, PL. SAN FRANCISCO 325, CUSCO 08002, PERU",CUSCO,CUSCO,CUSCO,-13.5192495,-71.9812043,38360.0,158.0,GRUPO NEYRA S.A.C.,52901.0,64496.0,61450.0,85973.0,88088.0,47686.0,39166.0,PILAR PINEDA,KAM PYME,ESTABLE,"PRODUCTOS POR PIEZA, NOCIONES Y OTROS PRODUCTOS SECOS",961269482
100000000108066,50d34c1961b488db305eff2084702854a15df31851a4c3e419ef1408ef92e2f5,20110168803,CLINICA MONTESUR,"PISO 1, EL POLO 505, SANTIAGO DE SURCO 15023, PERU",LIMA,LIMA,SANTIAGO DE SURCO,-12.1033633,-76.97299559999999,166874.711,61.0,CLINICA MONTESUR,682707.336,626865.1034,645776.2,663751.5163,593903.165,653334.2513,679456.2044,YOSELIN TORNERO,KAM BDN,TOP 10,HOSPITALES (CLINICAS Y CENTROS MEDICOS),943965172
100000000137037,b872c4cf73c9a408091f33e13e0ec1b1b091a088b6230a869ad6ad1db848f06c,20604652201,MARSALA,"PISO 8, C. MIGUEL DASSO 160, SAN ISIDRO 15073, PERU",LIMA,LIMA,SAN ISIDRO,-12.1068152,-77.0403757,269418.07,4970.0,FARENET,69963.29,65092.01,53671.02,22041.4,31355.0,65866.63,418113.86,LUIS PEREZ,KAM BDN,ESTABLE,TALLERES DE SERVICIO AUTOMOTRIZ (NO COMERCIANTE),993058620
200000000003631,eebb5a5e62639dc7a05e053215bd85d7734c1c20f36bd61ca092d0f6da3bcf4a,20613260774,EL SABROSITO,AV. CORONEL ALFONSO UGARTE 175 CER. DE BARRANCA,LIMA,BARRANCA,BARRANCA,-10.75271314295,-77.760269499275,50050.325,924.0,EL SABROSITO,17904.0,19150.0,17944.8,23464.0,38188.5,48017.9,49912.0,ANDRES RAMIREZ,KAM PYME,ESTABLE,RESTAURANTES Y VIDA NOCTURNA,914931631
200000000009078,912abea5a9c35ee9c4b279ce3e739b85407dc324eb8975e1f4aa17329a578363,20601703450,ESTACION DE SERVICIOS KALIN CALIFORNIA SAC,MZ G LOTE 01 URB SAN JOSE DE CALIFORNIA,LA LIBERTAD,TRUJILLO,VICTOR LARCO HERRERA,-8.135489399999999,-79.0401394,602028.38,7472.0,ESTACION DE SERVICIOS KALIN CALIFORNIA,621642.68,754239.68,656124.41,628422.48,637005.1,627759.0,630534.16,LUIS DE LUCIO,KAM PYME,TOP 10,"ESTACIONES DE SERVICIO (CON O SIN SERVICIOS DE ASISTENCIA) / GRIFOS, SERVICIO Y EXPENDIO DE GASOLINA",927645163
100000000019451,af681ba32d27fc6572467292e5111b1a37b3b87e58d3a24b3645567352a333ce,20611030500,ADUNI SCHOOL,"PISO 2, C. RÍO TIGRE 131, PUCALLPA 25000, PERU",UCAYALI,CORONEL PORTILLO,CALLERIA,-8.3742693,-74.5370994,42540.094,133.0,ADUNI SCHOOL,55525.0,84433.0,55924.0,50585.0,51380.0,43925.0,38220.0,VIANUSSA CANO,KAM PYME,ESTABLE,CENTROS DE ENSEÑANZA PRIMARIA Y SECUNDARIA,945542181
100000000076141,dd044b12660d640e207e90c21671c8a6a24a7404c1472981b4370a105ab77539,20605759760,SÚPER MASS,"PISO 2, AV. AREQUIPA 579, LIMA 15328, PERU",LIMA,LIMA,COMAS,-11.9565866,-77.04975730000001,1849.0,67.0,SUPER MASS,12818.2,27825.9,2784.6,2876.4,2928.9,3173.0,2917.6,VIANUSSA CANO,KAM PYME,ESTABLE,TIENDAS MINORISTAS MISCELÁNEAS Y ESPECIALIZADAS,936648664
100000000134300,c5171dc218cda267a5d86641a31aaffe3a03be6d0a4cc585154aa8ea38427785,20608543156,TABACO Y RON  JARD,"AV. TÚPAC AMARU 711, TRUJILLO 13001, PERU",LA LIBERTAD,TRUJILLO,TRUJILLO,-8.0984348,-79.0291855,0.0,0.0,TABACO Y RON,18509.6,39415.0,64414.15,58237.9,68783.65,75374.0,79186.7,LUIS DE LUCIO,KAM PYME,ESTABLE,PRODUCTOS PERECEDEROS (NO CLASIFICADOS EN OTRA MCC),949185536
100000000051174,03042704bab04b838f164ebbf573b148e3ef171619aafd5644e105b4753d74bb,10434651943,QOSQO TULLU,"PISO 2, AV TULLUMAYO 459, CUSCO 08000, PERU",CUSCO,CUSCO,WANCHAQ,-13.5208021,-71.9734866,14756.34,229.0,QOSQO 1,67477.06,121833.26,146514.52,100875.38,112654.69,144697.82,127787.56,RODRIGO RIVERA,KAM BDN,ESTABLE,"LUGARES PARA BEBER (BEBIDAS ALCOHÓLICAS) – BARES, TABERNAS, CLUBES NOCTURNOS, SALAS DE CÓCTELES Y DISCOTECAS. (DISCOTECAS, PEÑAS, BARES Y PUB'S)",986211111
100000000087412,a975704fd5575daf993bcbbc4543223e05a11c4d4db90142064b32711b751049,10448148209,DRA. SHEYLA SALAZAR,"INT 1201, C. MONTE ROSA 240, SANTIAGO DE SURCO 15038, PERU",LIMA,LIMA,SANTIAGO DE SURCO,-12.1122263,-76.9902331,39322.9,21.0,IDENT MAGDALENA,21632.4,19388.25,18906.3,28380.0,21571.24,22025.0,0.0,YOSELIN TORNERO,KAM BDN,ESTABLE,DENTISTAS Y ORTODONTISTAS,957587883
100000000100672,425fe0ec474da3e4926143f1d25beb8849fe9baaf88ba48ff408ffb9d13e6dbb,20609333171,POLLERIA DLUCHOS QUINTANAS,"AV. MANUEL VERA ENRÍQUEZ 23428, TRUJILLO 13001, PERU",LA LIBERTAD,TRUJILLO,TRUJILLO,-8.104930999999999,-79.0314767,0.0,0.0,D LUCHOS POLLERIA,454698.08,688990.53,573645.59,574939.45,523607.16,555980.91,610346.172,LUIS DE LUCIO,KAM PYME,TOP 10,RESTAURANTES Y VIDA NOCTURNA,941510350
100000000130206,a91f7e520536174379f36d4db036190931d97741d786534489c1b4e0b8c9f2f7,20604257183,EQUIPOS DX PERU,"2030, AVENIDA DU 5358, MIRAFLORES 15074, PERU",LIMA,LIMA,MIRAFLORES,-12.1164743,-77.0283642,14061.0,11.0,EQUIPOS DX PERU,18998.0,23388.5,24314.4,56093.6,96471.44,57557.62,70365.56,CYNTHIA CARRION,KAM PYME,ESTABLE,"MANTENIMIENTO, REPARACIÓN Y SERVICIOS INFORMÁTICOS (NO CLASIFICADOS EN OTRO MCC)",991341690
200000000063196,920eeab27c3380de5b28ca0898bbd2438618a0fd57d747c14c5e73fbba49e1e4,20612349071,ESTACION DE SERVICIOS PETROMAC,AV MATEO PUMACAHUA KILÓMETRO 28.5 SECTOR TAMBO CANCHA S/N,LIMA,LIMA,VILLA EL SALVADOR,-76.96372985839844,-12.192852020263672,38926.598,545.0,ESTACION DE SERVICIOS PETROMAC,269889.55,229125.65,0.0,0.0,0.0,0.0,0.0,AARÓN GARCÍA,KAM PYME,CRECIMIENTO,"ESTACIONES DE SERVICIO (CON O SIN SERVICIOS DE ASISTENCIA) / GRIFOS, SERVICIO Y EXPENDIO DE GASOLINA",900904063
100000000051701,8be63b2a80edccd04bdfab0342c9a33c60eda5ac1c6a64cdefc2be22fab01cad,20455823880,PULSO CLINICA - MOQUEGUA,"AV. JAVIER PRADO ESTE 2932, LIMA 15037, PERU",LIMA,LIMA,SAN BORJA,-12.08729,-76.9951234,5809.83,55.0,PULSO CLINICA - AREQUIPA,78298.99,58156.38,80527.02,86071.61,79530.48,85758.01,87216.25,LUIS PEREZ,KAM BDN,ESTABLE,OTROS SERVICIOS MÉDICOS,995960880
100000000108293,8f866112f3cf37b2eaef610e42198a659a5380bfba539d744e190b127378b1c7,20106502596,FASHION FACTORY AVIACION 3139,"PISO 1, AV. AVIACIÓN 3139, SAN BORJA 15037, PERU",LIMA,LIMA,SAN BORJA,-12.1014431,-77.001398,37718.6,517.0,FASHION FACTORY,42489.8,64377.7,37714.4,28283.4,31080.1,35718.5,44640.95,VANESA UMERES,KAM PYME,ESTABLE,"UNIFORMES Y ROPA COMERCIAL PARA HOMBRES, MUJERES Y NIÑOS",998181915
100000000132209,16080727bfa296977e90d705cf9bdf31db20d2b1cd30ac709bb2772e8481b5d1,10000269706,AL PALO A LA PARRILLA,"A.H 6 DE JULIO, PUCALLPA 25004, PERU",UCAYALI,CORONEL PORTILLO,YARINACOCHA,-8.3678628,-74.5664666,0.0,0.0,AL PALO Y LA PARRILLA,74387.376,90102.51,70354.7,84955.2,93972.52,97255.9,101078.15,MONICA VALENZUELA,KAM PYME,ESTABLE,RESTAURANTES Y VIDA NOCTURNA,961844094
200000000068162,04a6c822880cdace72cbd76236b4d9fbd39dc1468e010aad65452dea4617115f,20600783981,DON NICO STEAK HOUSE,CAL.8 DE OCTUBRE NRO. 271 DPTO. 503 URB. SANTA CRUZ,LIMA,LIMA,MIRAFLORES,-77.04615783691406,-12.113117218017578,23039.95,66.0,DON NICO STEAK HOUSE,226037.62,159052.92,71474.11,64071.05,56412.2,51090.75,57372.91,RICARDO TERAN,KAM PYME,CRECIMIENTO,PASTELERÍAS,955546571
100000000009380,bcbcc95070465fccb2b936788d34928665a753f6952daef0f93dd44f5403c5ad,10320420704,MULTITIENDA CARMEN,"PISO 483, C. MANCO CÁPAC 483, MIRAFLORES 15074, PERU",LIMA,LIMA,MIRAFLORES,-12.1274884,-77.0298856,42227.056,2641.0,MULTITIENDA CARMEN,53523.81,73254.702,71228.58,66312.8054,64928.7867,66921.236,58530.54,JORGE CALLE,KAM PYME,ESTABLE,"MINIMARKETS, BODEGAS, SUPERMERCADOS",973270782
100000000051661,af7b068b284f87d7199290cb1fdbdcd6432ad745d83b7f14e0e74f5fad1c85d1,20229867246,TRANSPORTES JULIO CESAR CHIMBOTE,"AU. PANAMERICANA N 770, CHIMBOTE 02804, PERU",ANCASH,SANTA,CHIMBOTE,-9.104779299999999,-78.5578073,1258.0,25.0,TRANSPORTES JULIO CESAR CARHUAZ,286781.05,338034.05,298179.0,302243.5,295293.0,333836.5,335426.0,YOSELIN TORNERO,KAM BDN,ESTABLE,SERVICIOS DE TRANSPORTE (NO CLASIFICADOS EN OTRO MCC),941315483
100000000088107,058af1a296391481e18e32a89c6780ef85361a1a08199639629aa084f7021cc1,20109709116,CADDIN,"D201, AV. DE LAS ARTES NTE. 1014, SAN BORJA 15037, PERU",LIMA,LIMA,SAN BORJA,-12.0899659,-76.99588100000001,1428.0,1.0,CADDIN,158513.0,86622.14,69777.78,41442.64,41295.0,16098.0,39038.86,YOSELIN TORNERO,KAM BDN,CRECIMIENTO,SUMINISTROS INDUSTRIALES (NO CLASIFICADOS EN OTRO MCC),945404361
100000000118822,48a1a2517befd819fa4974f2443a5a0405891e8715a9466e412aff2389d169e2,20603730403,COCOS BURGER,"AV. GUARDIA CIVIL SUR 444, SANTIAGO DE SURCO 15054, PERU",LIMA,LIMA,SANTIAGO DE SURCO,-12.1668068,-76.9904921,53423.5,2121.0,COCOS BURGER,325389.0,389740.9,367544.1,360753.15,332575.4,357639.1,363711.7,AARÓN GARCÍA,KAM PYME,ESTABLE,RESTAURANTES Y VIDA NOCTURNA,915191289
100000000136217,83ed126856e82bf451bfa4f5279ac5080e7dd7227375630bbcff30060aec5957,20102026986,PLUMAS  ONLINE,"SAMUEL LUIS VILLARAN 228, LIMA 15803, PERU",LIMA,LIMA,SAN JUAN DE MIRAFLORES,-12.1527792,-76.9699656,0.0,0.0,PLUMAS S.A.C.,354816.3927,633925.0878,396501.9608,414719.469,364608.244,438448.95,511691.6404,LUIS PEREZ,KAM BDN,TOP 10,ALMACENES DE SUMINISTROS PARA EL HOGAR,999999999
200000000066824,8fe68f7688dbba890d5b80f9517dd58ed7504622563bad6d3f97b34fbda6cef2,20521020149,BOTICAS JHODAAL - SURCO 4,CA. ROSENDO LEDER 611 URB. SAN JUAN ZONA A,LIMA,LIMA,SAN JUAN DE MIRAFLORES,-12.15365219116211,-76.97628021240234,0.0,3.0,BOTICAS JHODAAL,255519.16,277510.9,251701.72,273599.58,249229.0,234215.88,245673.3,RICARDO TERAN,KAM PYME,TOP 10,HOSPITALES (CLINICAS Y CENTROS MEDICOS),993925775
100000000009978,60ba6090980038a78d9cd5237f1926c48504056684a88e011fe9a6c1b1ea94a4,20512218424,TRIMAX CAILLOMA,"PISO 1, JR. NAPO 171, BREÑA 15082, PERU",LIMA,LIMA,BREÑA,-12.0519605,-77.0522586,28471.912,62.0,TRIMAX NAPO,173741.7946,161706.3657,95020.852,185357.979,109356.5695,134273.0888,106065.38,ANABEL SANTAMARIA,KAM BDN,CRECIMIENTO,PRODUCTOS NO PERECEDEROS (NO CLASIFICADOS EN OTRA MCC),998751216
100000000042336,d05427ba350e9eb554bf7fb7216ad641f12959279e7a21757ef617b3e13e4a55,20546153372,GPC 2 - SUMINISTROS,"DE LA UNION 166, ATE 15012, PERU",LIMA,LIMA,ATE,-12.0535478,-76.95985519999999,0.0,0.0,GPC CALLAO,209048.5,237173.5,244244.4,273196.5,297703.5,295917.3395,271648.3,ANABEL SANTAMARIA,KAM BDN,ESTABLE,TIENDAS DE PARTES Y ACCESORIOS AUTOMOTRICES.,922315358
100000000092480,fa3943c1329a564532a5d6e16ddad6d4be88fcc8ea4a9e094eb0535a29061e3f,20603490429,JUMP SPOT  LA MARINA,"AV. DE LA MARINA 2355, SAN MIGUEL 15087, PERU",LIMA,LIMA,SAN MIGUEL,-12.0798963,-77.0887044,63017.6,1266.0,JUMP SPOT,567709.79,675155.843,599459.92,597489.79,413602.2,647992.09,613310.1,GUILLERMO MERINO,KAM BDN,TOP 10,"MINIMARKETS, BODEGAS, SUPERMERCADOS",981255309
100000000095668,0b0a9e82009b2f12987f7d7a81f8d377cfcacb97b108609ab8d5282b7007fb13,20609851938,PLAYINVR,"C. LAS TURMALINAS 103, SANTIAGO DE SURCO 15023, PERU",LIMA,LIMA,SANTIAGO DE SURCO,-12.0917973,-76.967034,0.0,0.0,PLAYINVR,112381.5,95040.1,71584.2,75594.6,58401.9,90250.2,126852.9,GUSTAVO MENDOCILLA,KAM PYME,ESTABLE,CLUBES MAYORISTAS,949992951
100000000107590,fadc962af7e4ca556d66c8d421c8cd4258eec70decc51f679265df2d46d52a3e,20611209631,EF PERFUMES,"AV. GUARDIA CIVIL SUR 1035, CHORRILLOS 15056, PERU",LIMA,LIMA,CHORRILLOS,-12.1728318,-76.9927479,14944.0,167.0,EF PERFUMES,59191.0,128841.9,78001.0,66687.0,69511.0,68032.5,15022.0,CYNTHIA CARRION,KAM PYME,TOP 10,TIENDAS DE COSMÉTICOS,935800364
100000000118334,25f24c6fa274e3eca6d6050dcb992132c6d36629faf409ba2b913e683a0a3645,20338395290,TIENDA PAL ZILERI - CC JOCKEY PLAZA,"PISO 895, AV. JORGE BASADRE GROHMANN 895, SAN ISIDRO 15073, PERU",LIMA,LIMA,SAN ISIDRO,-12.095443,-77.0406951,107881.826,67.0,TIENDA HUGO BOSS - CC JOCKEY PLAZA,2084479.11,4557201.5277,3379912.4936,2357940.5328,2673927.781,3185072.8679,3122665.0406,LUIS PEREZ,KAM BDN,TOP 10,"UNIFORMES Y ROPA COMERCIAL PARA HOMBRES, MUJERES Y NIÑOS",934595330
100000000142206,25cb8083eac95f95bc317339876ac2dad07d0f6ae2e9bb40a58785fdddc21a70,20614136538,CHURRASQUERIA VILLARICA,"PISO 2, AV. MANCO CÁPAC 105, BAÑOS DEL INCA 06004, PERU",CAJAMARCA,CAJAMARCA,LOS BAÑOS DEL INCA,-7.164805999999999,-78.4684188,0.0,0.0,VILLA RICA CHURRASQUERIA,0.0,47973.7,118029.0,122212.25,171243.1,182629.2,176551.9,LUIS PEREZ,KAM BDN,RECUPERO,RESTAURANTES Y VIDA NOCTURNA,976300814
100000000005631,ffd44fdb60feb54e37ab1d8353baa20419bc03585fdf0a868d1b3255ed118c53,20557616048,MULTISERVICIOS IMAN,"AV. MORALES DUÁREZ 184, CARMEN DE LA LEGUA - REYNOSO 07006, PERU",CALLAO,CALLAO,CALLAO,-12.0401511,-77.0988811,68876.169,215.0,MULTISERVICIOS IMAN,87145.89,56053.22,57492.65,83431.51,84075.65,61459.65,77943.9,PILAR PINEDA,KAM PYME,CRECIMIENTO,TALLERES DE SERVICIO AUTOMOTRIZ (NO COMERCIANTE),946294335
100000000048353,52e730eea38ead3018bf86fc37f2cb8ae1d38ce17294e6d2aa425040272ba52b,20611872292,KAMILA CAFE,"LOTE 16, MZ A 22, LIMA 15023, PERU",LIMA,LIMA,SANTIAGO DE SURCO,-12.0979648,-76.9620946,72342.91,1462.0,KAMILA CAFE,330861.01,359230.13,379902.73,173033.33,0.0,0.0,0.0,ANDRES RAMIREZ,KAM PYME,TOP 10,PASTELERÍAS,902795905
100000000053556,36e82e11339a29aa3930516de1204e1112558cba02dd7e797516e9fdce008b6c,20131366451,MUNI DE PUNTA HERMOSA - PREDIAL,"2VQP+MC2, AV JOSEFINA, SAN MARTÍN DE PORRES 15112, PERU",LIMA,LIMA,SAN MARTIN DE PORRES,-11.9608674,-77.1139824,350984.011,588.0,MUNI DE PUNTA HERMOSA - ARBITRIOS,424302.56,289386.62,397847.46,302194.18,278613.0,364965.29,298351.9082,GUILLERMO MERINO,KAM BDN,ESTABLE,PAGOS DE IMPUESTOS,940095273
100000000055210,6b6c2af99ac4869ffb15cbbad90fca908386d508498aa2793dbb78d2907601ac,20536246852,TONY ROMAS,"PISO 1, AV. GRAL. MENDIBURU 1007, MIRAFLORES 15074, PERU",LIMA,LIMA,MIRAFLORES,-12.1116776,-77.0487023,42735.37,503.0,RASSON,204120.13,245926.73,232326.02,231931.78,181918.77,252697.55,252448.35,LORENA RODAS,KAM PYME,ESTABLE,RESTAURANTES Y VIDA NOCTURNA,998274017
100000000110556,cc4efccccfff75d1770b7b81fc4e97ee12c994f411bde804b4a11714a23d9178,20553264520,DANICA,"EL POLO 670, SANTIAGO DE SURCO 15023, PERU",LIMA,LIMA,SANTIAGO DE SURCO,-12.1013902,-76.970967,0.0,0.0,LA CAFFETTERIA,220336.17,355720.16,286157.428,271695.84,276306.51,327928.4,303714.44,RICARDO TERAN,KAM PYME,TOP 10,PASTELERÍAS,985672161
100000000023671,d64f2a2f4e9b48bf867c3cc09522b12a32b129d3302b909a759af55d9a2646e2,20406507336,DISCOTECA IMPERIUM,"PISO 2, 7 DE JUNIO 568, JULIACA 21104, PERU",PUNO,SAN ROMAN,JULIACA,-15.4960758,-70.1330681,5421.172,120.0,GRUPO KAT MERCANTIL,39942.0,41611.0,47069.0,50458.0,37551.0,49401.0,44679.0,YOSELIN TORNERO,KAM BDN,ESTABLE,"HOTELES, MOTELES Y POSADAS",951300771
100000000054456,06c940a36dbb937ffa83248623528ccd5fff6941cb84fe1dbc4472134c732ced,20607918156,SAN JUDAS MEDICAL SAC,"PISO 1, AV. JAVIER PRADO ESTE 3536, SAN BORJA 15037, PERU",LIMA,LIMA,SAN BORJA,-12.0863974,-76.98798479999999,38744.0,289.0,SAN JUDAS MEDICAL - CALLAO,56872.4,52226.6,51069.9,61597.4,51520.22,51086.1,42254.3,DANIEL LOVON,KAM PYME,CRECIMIENTO,DENTISTAS Y ORTODONTISTAS,990990375
100000000055713,bb38ca3724f90692e210ee4c916cd79c4b4b5e8744698f988c4fa5fb6031f5d2,20606975229,REPUESTOS FRANK EIRL,"PISO 226, PIURA N 226, CHICLAYO 14009, PERU",LAMBAYEQUE,CHICLAYO,CHICLAYO,-6.7689473,-79.8530174,67678.25,397.0,REPUESTOS FRANK EIRL,57264.5,65277.05,54992.5,56653.5,60396.0,68942.5,68339.0,VANESA UMERES,KAM PYME,ESTABLE,TIENDAS DE PARTES Y ACCESORIOS AUTOMOTRICES.,964932199
100000000091916,59eaf98b760c4d65ccd01e87347c2efc8b790c6eab7017dc5eb309318bd5db5c,10095308070,MINIMARKET LA PLANICIE,"RICARDO PALMA, PUNTA HERMOSA 15846, PERU",LIMA,LIMA,PUNTA HERMOSA,-12.3309931,-76.8291924,131996.14,3906.0,MINIMARKET LA PLANICIE,127202.03,65428.15,43645.66,53723.55,36174.0,43767.21,46866.004,JORGE CALLE,KAM PYME,ESTABLE,"MINIMARKETS, BODEGAS, SUPERMERCADOS",913160596
100000000095279,7502fb832a7048d3f1d7be155bd16b8b5434654667d8ee9358c1296a8265beb4,20603757476,INVERSIONES VALERY SHOES S.A.C,"AV. 28 DE JULIO 335, LIMA 15046, PERU",LIMA,LIMA,LIMA,-12.0646963,-77.042849,162002.05,1057.0,VALERY SHOES -SOLAR,196142.66,645458.3,252006.7,180804.2,169892.0,167960.28,192324.97,WALTHER FAJARDO,KAM PYME,TOP 10,CALZADO COMERCIAL,947484619
100000000055868,c6966b0705700639fa5b48139f9b902686171492c96cede86f065687e7279736,10487032382,BARRA CHICLAYO,"CORREGIDOR 134, JOSÉ LEONARDO ORTIZ 14002, PERU",LAMBAYEQUE,CHICLAYO,JOSE LEONARDO ORTIZ,-6.7593405,-79.83445669999999,167261.5,889.0,BARRA CHICLAYO,44150.5,62204.85,176845.93,192311.05,175027.4,192004.05,219349.0,WALTER YARLEQUE,KAM PYME,ESTABLE,OTRO SERVICIOS PROFESIONALES,953751231
100000000108812,46409ac8e877a09fa1bc26570958d84f6650162e1ef0aaab30e7780951ba18de,20607983845,VIDA Y SER 5,"JR. HUARMEY 1280, LIMA 15302, PERU",LIMA,LIMA,PUENTE PIEDRA,-11.8718968,-77.0695427,10527.6,203.0,CLÍNICA MONTELUZ,212380.85,196994.2,187324.42,166082.25,172968.25,161741.07,163935.8,RODRIGO RIVERA,KAM BDN,CRECIMIENTO,HOSPITALES (CLINICAS Y CENTROS MEDICOS),987869710
100000000109180,88d87ee9b94617b960bc2e8ec765d4089af51324deb7912a027987262da6e551,20612977985,BOOST PERU SURCO,"PISO 2, AV. PETIT THOUARS 5356, MIRAFLORES 15074, PERU",LIMA,LIMA,MIRAFLORES,-12.1163696,-77.0285083,8110.26,37.0,BOOST PERU - ICA,41102.48,48416.18,36801.71,52050.71,44670.2,48732.23,51608.75,AARÓN GARCÍA,KAM PYME,ESTABLE,"MANTENIMIENTO, REPARACIÓN Y SERVICIOS INFORMÁTICOS (NO CLASIFICADOS EN OTRO MCC)",956670665
100000000153018,6b9c33837a6030be7868202b4e10c5996449f078bfeb00edd2f91423a68733e9,20605456520,OJEDA MARKET INVERSIONES EIRL 2,"URB LOS ALAMOS, AREQUIPA 04001, PERU",AREQUIPA,AREQUIPA,AREQUIPA,-16.4087451,-71.5443904,0.0,0.0,OJEDA MARKET,176821.62,215072.31,194525.22,208413.45,213433.62,211522.76,234982.77,RICARDO TERAN,KAM PYME,TOP 10,"MINIMARKETS, BODEGAS, SUPERMERCADOS",999999999
200000000060662,7ac967a046cfef6fd33d43e58d2b44c8988440532caf99efb08c96472994c19f,20607706213,LA CASITA DEL CUY,JR. JOSE ARNALDO MARQUEZ 530 URB. SAN LUIS,CAJAMARCA,CAJAMARCA,CAJAMARCA,-7.151064872741699,-78.5071029663086,6170.5,138.0,LA CASITA NORTEÑA,79956.5,108975.4,92497.3,76878.4,69561.1,79345.6,78154.55,DANIEL LOVON,KAM PYME,ESTABLE,RESTAURANTES Y VIDA NOCTURNA,917109865
100000000088779,30ab5b024efcb222194bdeeadcbdeccfb37a1c8db251c9eff988ba05cc15c094,20605093443,LA TIENDA DEL MECANICO,"PISO 2, JIRÓN GARCÍA NARANJO 178, LA VICTORIA 15033, PERU",LIMA,LIMA,LA VICTORIA,-12.0621529,-77.03139139999999,30918.092,35.0,SPEED TEC,0.0,0.0,0.0,0.0,0.0,0.0,2553.487,LORENA RODAS,KAM PYME,ESTABLE,TIENDAS DE PARTES Y ACCESORIOS AUTOMOTRICES.,958972602
100000000093873,9bd41f98d1ce88f1a637adf76ebf7611ee46d2e9e632456f1c8d43f6f598b8e0,20608215990,RESTAURANTE FLOR DE LOTO,"AV. EL DERBY, SANTIAGO DE SURCO 15023, PERU",LIMA,LIMA,SANTIAGO DE SURCO,-12.0982099,-76.9743623,83913.675,1163.0,RESTAURANTE FLOR DE LOTO,161143.63,172145.41,136382.72,95794.35,90803.68,103656.46,109918.65,JORGE CALLE,KAM PYME,CRECIMIENTO,RESTAURANTES Y VIDA NOCTURNA,942424071
100000000099561,3775ae7fbceb654dbf729f7f2bbbe48032849b5ca59e1a0386350256e9d65f28,20607954934,TACUMAR E.I.R.L,"CAL LAS CALEZAS NRO 256 PISO 2 REF PARQUE DE AVION, RIMAC, LIMA, LIMA, PERU",LIMA,LIMA,RIMAC,-12.0278035,-77.03024769999999,55869.2,536.0,TACUMAR E.I.R.L,265392.55,323245.889,264324.35,200937.65,174065.07,188307.01,208690.3,DANIEL LOVON,KAM PYME,ESTABLE,RESTAURANTES Y VIDA NOCTURNA,979597400
100000000108111,61176e4c3bdb19f032c57233c21647f6eedf8936fbb292f3a994fb266f6b23f9,20492478009,ENRIQUE TOMÁS HOTEL COUNTRY,"PISO 578, CA. LOS EUCALIPTOS 578, SAN ISIDRO 15076, PERU",LIMA,LIMA,SAN ISIDRO,-12.0978383,-77.04834720000001,75192.05,603.0,ENRIQUE TOMÁS LARCOMAR,226070.32,367841.7,288534.41,268455.65,239834.89,299520.12,272891.02,LUIS PEREZ,KAM BDN,ESTABLE,RESTAURANTES Y VIDA NOCTURNA,938314675
100000000129386,5a909e24a4754c67a7bae88b51ba0a5c1ac7a152579e28f2d2bb0df3459c2243,20393569884,SAN FERNANDO 2,"PISO 2, SAN LORENZO 1250, SURQUILLO 15048, PERU",LIMA,LIMA,SURQUILLO,-12.10776,-77.01730669999999,5280.6,45.0,SAN FERNANDO 1,7683.19,366122.48,289940.68,147477.84,100068.2098,74106.99,71323.17,GUSTAVO MENDOCILLA,KAM PYME,TOP 10,OTRAS TIENDAS DE COMIDA,953672989
100000000136108,5c2acc00d87ab46d209e04cbf0b8b469b4dbe63daaa870a27894140a01583797,20606224738,DEL CAMPO A TU CASA PERU,"PISO 1ER, JR LAS GAVIOTAS 1573, LIMA 15054, PERU",LIMA,LIMA,SANTIAGO DE SURCO,-12.1637791,-76.99658339999999,1951.1,19.0,DEL CAMPO A TU CASA PERÚ,43396.24,55948.52,72764.33,78203.96,78350.16,75904.25,75826.27,DANIEL LOVON,KAM PYME,ESTABLE,OTRAS TIENDAS DE COMIDA,999999999
100000000153681,cb591f17634018922284c758504b27df28a51f1a068eae7d7d357cd7fbebc2a3,20100192650,ALPACA FACTORY OUTLET PERU LINK,"AV. JUAN DE LA TORRE 101, AREQUIPA 04001, PERU",AREQUIPA,AREQUIPA,AREQUIPA,-16.3928552,-71.53592189999999,0.0,0.0,MUNDO ALPACA AREQUIPA,49942.06,152165.57,169664.89,82105.86,92652.71,95412.62,166515.05,ARIANA HUERTA,KAM BE,ESTABLE,PRODUCTOS PERECEDEROS (NO CLASIFICADOS EN OTRA MCC),969667758
200000000066482,6c57c75a3c5cb8afcdadf260d1d71456b4d6555f89ec4b00a5c6e3a54c5cce97,20512258990,NOTARIA BANDA - GESTION REGISTRAL,AV. PAS. DE LA REPÚBLICA 385,LIMA,LIMA,LA VICTORIA,-77.03475189208984,-12.060857772827148,288.8,6.0,DISERGEST REGISTRAL P3,40463.67,59713.21,73376.56,83435.37,57796.73,67952.55,54733.1,ANABEL SANTAMARIA,KAM BDN,ESTABLE,OTROS SERVICIOS RECREATIVOS,949085387
100000000051610,8625cd49ed80c65003337ba828344e25ddeeaee469d039fcc1b92c3c1da533ad,20115397428,TIENDA JOCKEY,"INT 133 PISO 1, AV. JAVIER PRADO ESTE 4200, SANTIAGO DE SURCO 15023, PERU",LIMA,LIMA,SANTIAGO DE SURCO,-12.0864416,-76.9765475,75371.224,1669.0,HELENA CHOCOLATIER,418551.88,733497.25,433320.92,463465.75,468620.507,483987.97,540970.62,ANABEL SANTAMARIA,KAM BDN,TOP 10,"DULCERÍAS (TIENDAS DE DULCES, NUECES Y CONFITERÍAS).",970888627
100000000092449,fa3943c1329a564532a5d6e16ddad6d4be88fcc8ea4a9e094eb0535a29061e3f,20603490429,JUMP SPOT MINKA,"AV. ARGENTINA 3093, CALLAO 07001, PERU",CALLAO,CALLAO,CALLAO,-12.0467688,-77.10174359999999,32450.2,566.0,JUMP SPOT,567709.79,675155.843,599459.92,597489.79,413602.2,647992.09,613310.1,GUILLERMO MERINO,KAM BDN,TOP 10,"MINIMARKETS, BODEGAS, SUPERMERCADOS",981255309
100000000107903,299d2c197aec34190172ae25c5e2da2170bbcdad725d4421f4e9c02397cd5bd2,10762462244,CEVICHERIA,"CHIMBOTE, PERU",ANCASH,SANTA,CHIMBOTE,-9.063336399999999,-78.589011,5844.0,74.0,CEVICHERIA,1652.98,4063.6,8088.15,6031.52,6290.99,6454.15,1579.2,ANABEL SANTAMARIA,KAM BDN,ESTABLE,RESTAURANTES Y VIDA NOCTURNA,979000340
100000000108345,2441772881d2f851240856fd38a6624f67be105119c84eed3efa1cbfd4426b76,20535632872,TENTACIONES GOURMET LINK DE PAGO,"PISO 2, AV. DEL EJÉRCITO 645, MIRAFLORES 15074, PERU",LIMA,LIMA,MIRAFLORES,-12.115147,-77.0468442,11934.25,135.0,TENTACIONES GOURMET,179930.28,317855.7,231725.26,229072.09,226916.8,244678.26,251365.88,CYNTHIA CARRION,KAM PYME,TOP 10,PRODUCTOS PERECEDEROS (NO CLASIFICADOS EN OTRA MCC),997518368
100000000137692,c33b340d48ad5b9c986c653fe1fe6d72b7b91ec69e5a1b1e523f3547e8c42c82,20447943060,TURISMO ZOLORZANO,"PLAZA DE ARMAS, JIRON 2 DE MAYO 422, JULIACA 21101, PERU",PUNO,SAN ROMAN,JULIACA,-15.4932763,-70.1356266,125058.25,2761.0,TRANSPORTES TURISMO ZOLORZANO S.A.C,184378.71,222179.71,192329.59,192699.94,171013.9,285023.0,241270.37,JORGE CALLE,KAM PYME,ESTABLE,SERVICIO DE TRANSPORTE COMPARTIDO,975354477
100000000016288,01a948357638c2adb64673b71380baf85cfbcfdc3be27f80788f3fc0e2627f4d,20453755101,A Y L FOTOS EIRL,"PLAZA DE ARMAS OF CAJAMARCA, CAJAMARCA 06001, PERU",CAJAMARCA,CAJAMARCA,CAJAMARCA,-7.1569955,-78.5174615,4432.95,259.0,BESTMART,3650.3,28078.4,19232.3,9045.6,7726.6,5000.3,4643.0,VANESA UMERES,KAM PYME,TOP 10,"FOTOGRAFÍA, ARTE Y GRÁFICOS COMERCIALES",991682331
100000000044251,7ab8418a615c9093e1659d24cdd278d7c8b7a203ef8f0d585bbffff28c2667e6,20511555729,PROBOCA MERCEDES,"PARQUE ARMENDÁRIZ 119, MIRAFLORES 15074, PERU",LIMA,LIMA,MIRAFLORES,-12.1348791,-77.02475369999999,2064.9,314.0,PROBOCA MOLINA,372692.902,440877.63,650285.72,621192.8366,747707.0325,603020.713,541717.14,YOSELIN TORNERO,KAM BDN,ESTABLE,SERVICIO DE CATERING,964168441
100000000051666,3104bdbee93b7a0ef4bae73245415ef94d6f3c39b06acbebcc4b2dc779c7d8eb,20428474881,TURISMO ESPINOZA - AYACUCHO,"AV. CARLOS ZAVALA 235, LIMA 15001, PERU",LIMA,LIMA,LA VICTORIA,-12.0585024,-77.03115059999999,46942.254,1040.0,TURISMO ESPINOZA - AYACUCHO,203624.0,306896.801,246310.0,246300.93,230321.0,192441.0,190330.55,GUILLERMO MERINO,KAM BDN,ESTABLE,SERVICIOS DE TRANSPORTE (NO CLASIFICADOS EN OTRO MCC),908935513
100000000120098,cb177200c226d50403c6d9d39be55665c8f2fbf7c37642262fda68f950952b7c,20100211115,TIENDA PORTAL DE LA MUNICIPALIDAD,"PISO 124, PORTAL DE LA MUNICIPALIDAD, 124, AREQUIPA 04001, PERU",AREQUIPA,AREQUIPA,AREQUIPA,-16.3993419,-71.5371857,0.0,0.0,LA IBERICA - LIMA,119490.16,577767.16,150187.16,226028.0155,759889.705,755809.6163,889234.4584,ARIANA HUERTA,KAM BE,ESTABLE,"MINIMARKETS, BODEGAS, SUPERMERCADOS",999999999
100000000136337,3b3061f0c224579775571847d79f065d87a9b3d0e4a7b436f53ad2873de76b57,20510014279,SPORTING CRISTAL WEB,"C. 18, RÍMAC 15094, PERU",LIMA,LIMA,RIMAC,-12.0242437,-77.033688,0.0,0.0,CLUB SPORTING CRISTAL,492660.33,453729.89,118738.36,136137.27,189732.05,268067.89,108134.9,ARIANA HUERTA,KAM BE,ESTABLE,OTROS SERVICIOS EDUCACIONALES,999999999
100000000044888,43a2e221bde4bf55368aaa1008d79fec3f4aee8a534b1ba40ba59c4f35144d6e,20600433076,ECO RESTO PARK 1,"C. 5, PACHACAMAC 15823, PERU",LIMA,LIMA,PACHACAMAC,-12.2160876,-76.8637741,33698.908,138.0,ECO RESTO PARK 1,42728.2,84061.29,77221.16,86882.8,62320.36,134278.85,171362.9,SALOMÉ PRO,KAM PYME,ESTABLE,RESTAURANTES Y VIDA NOCTURNA,968200588
100000000047912,7918fc35761b5252ce9c17e24752f9430df6d137e15866ed679f68b5ff4be269,20524000661,MARIE DE LA TOSCANA 01,"AV. AVIACIÓN 3470, SAN BORJA 15036, PERU",LIMA,LIMA,SAN BORJA,-12.1067066,-77.00129079999999,52598.15,1510.0,TORTAS MARIE,114142.71,148513.9,142758.65,148136.15,158044.45,171656.57,170417.806,LORENA RODAS,KAM PYME,ESTABLE,PASTELERÍAS,990370137
100000000088097,485d21ea55c5b7e7d39b65ff08c884eb77e4e1b5879f30104cebf61d0bdc7061,20551879837,CLÍNICA VETERINARIA HEALTHY PETS,"1477, AV. LUIS BRAILLE 1477, LIMA 15081, PERU",LIMA,LIMA,LIMA,-12.0533346,-77.0666122,52053.0,316.0,CLÍNICA VETERINARIA HEALTHY PETS,34849.8,44804.8,50504.5,40507.85,50600.1,48897.05,52600.8,PILAR PINEDA,KAM PYME,ESTABLE,"TIENDAS DE MASCOTAS, TIENDA DE ALIMENTOS Y SUMINISTROS PARA MASCOTAS.",991429225
100000000096326,37d5617a4017f939124b4afd810fd4bb83bc371206820783fdb3533a06eb882c,10478543056,EL ARTE,"PISO 242, C. SANCHEZ TRUJILLO 242, MIRAFLORES 04004, PERU",AREQUIPA,AREQUIPA,MIRAFLORES,-16.3903925,-71.51662259999999,18888.5,316.0,EL ARTE,9830.0,9180.5,11963.5,27944.0,12531.0,7658.0,13792.5,PILAR PINEDA,KAM PYME,ESTABLE,RESTAURANTES DE COMIDA RAPIDA,924548311
100000000134439,2cbc53bbe6852632991f773c300f86d5e2f19dd6cbfea827320449a677b63584,20610523421,EL LENADOR JV,"AV. JAVIER PRADO ESTE 4200, SANTIAGO DE SURCO 15023, PERU",LIMA,LIMA,SANTIAGO DE SURCO,-12.0852535,-76.9772493,27111.5,541.0,EL LENADOR JV EIRL,102732.7,163275.16,129358.5,124944.0,114799.0,124910.1,135693.6,ANDRES RAMIREZ,KAM PYME,ESTABLE,RESTAURANTES Y VIDA NOCTURNA,942419990
100000000136379,c026c3dd4298251e6e06b2a4725e5fc9998f70f1e990194a421153971cd01988,20549131094,TAPOUT,"PISO 2, C. SILVANA 110, SANTIAGO DE SURCO 15038, PERU",LIMA,LIMA,SANTIAGO DE SURCO,-12.1193852,-76.9866021,0.0,0.0,TAPOUT,58802.17,128397.07,63657.26,38416.8,59267.48,55715.82,72729.2237,VICTOR ALVARADO,KAM PYME,ESTABLE,TIENDAS MISCELÁNEAS DE ROPA Y ACCESORIOS,980630636
100000000069558,ebca7ecaacd8d37ab305fb309c044028612fb7de5cf3d6f55eef97ccba97253f,20600542185,MEIER RAMIREZ SAC,"PISO 2, TOULUSE LAUTREC JAVIER PRADO, AV. ALMTE. MIGUEL GRAU 810, BARRANCO 15063, PERU",LIMA,LIMA,BARRANCO,-12.1429929,-77.0218922,0.0,0.0,MEIER RAMIREZ SAC,55707.53,70074.45,67808.74,64288.42,73874.28,76434.74,79679.76,CYNTHIA CARRION,KAM PYME,ESTABLE,RESTAURANTES Y VIDA NOCTURNA,917704170
100000000109681,f1e82c649875fc29143ef216368318841768cd1cc7b6b385d16f470de4b45af1,20604852073,PAPERSTOP,"AV. LORETO 461, OFICINA 203, PIURA, PIURA, PIURA",PIURA,PIURA,PIURA,-5.1963572,-80.6300174,316.8,4.0,PAPERSTOP,93161.34,230097.48,78819.35,63530.79,59444.98,82411.51,68853.14,ANDRES RAMIREZ,KAM PYME,ESTABLE,"TIENDAS DE ARTÍCULOS PARA ESCRIBIR, TIENDAS DE SUMINISTROS PARA OFICINA Y COLEGIO",991306028
200000000046813,22d9c7e940c386500c1af54724f1e6f4f203f5f80b865ec9193459719260c73e,20606210788,DCORDILLERA,CA. TORRES PAZ 704 CER.,LAMBAYEQUE,CHICLAYO,CHICLAYO,-6.7736448749999,-79.83842712,68071.874,1718.0,DCORDILLERA,106381.43,116094.39,85222.74,78487.32,74319.25,97116.0,94593.08,VIANUSSA CANO,KAM PYME,CRECIMIENTO,PASTELERÍAS,950429718
100000000034138,e530119f3681239f739d3912ca18c97603190e9cf340e29916c8fdc54b9358ef,20601432456,D & V INVERSIONES MARINAS,"AV. DE LA MARINA N° 2355, SAN MIGUEL 15087, PERU",LIMA,LIMA,SAN MIGUEL,-12.0796463,-77.08872939999999,56787.7,388.0,D & V INVERSIONES MARINAS,32645.0,37504.5,25047.5,31792.0,26600.4,43119.0,47076.0,ANDRES RAMIREZ,KAM PYME,ESTABLE,RESTAURANTES Y VIDA NOCTURNA,989851829
100000000045866,953736d1d1abfaf57c558eeb097eaf4aa427070ca9f879d1c03bb6c23606a7f9,20610453261,CABAÑITA,"AV SAN JUAN 989, LIMA 15801, PERU",LIMA,LIMA,SAN JUAN DE MIRAFLORES,-12.1569558,-76.97298049999999,128068.655,1075.0,CABAÑITA,156475.05,230731.79,192094.3,175318.74,116766.7,185002.2,195800.05,DANIEL LOVON,KAM PYME,ESTABLE,RESTAURANTES Y VIDA NOCTURNA,994970687
100000000087970,54b9c0a87243a98f1b4cf1a0fa77803d6d8774ad705ef75626796296245e4446,20527573123,BOUTIQUE TRC,"AV. AEROPUERTO KM. 6, PUERTO MALDONADO 17001, PERU",MADRE DE DIOS,TAMBOPATA,TAMBOPATA,-12.5972764,-69.2172981,4267.38,38.0,REFUGIO AMAZONAS - BAR,48060.5,88360.6,81743.55,190599.9,182867.31,182079.86,174361.58,VANESA UMERES,KAM PYME,ESTABLE,"LUGARES PARA BEBER (BEBIDAS ALCOHÓLICAS) – BARES, TABERNAS, CLUBES NOCTURNOS, SALAS DE CÓCTELES Y DISCOTECAS. (DISCOTECAS, PEÑAS, BARES Y PUB'S)",984100660
100000000092789,9e66ae48cbd0c23f328cb852ba304e8994ce317b5a7a326db6f4a48f7aa61d71,20610801979,AUTOMOTRIZ EDITH EXPRESS SAC,"AV. CANTA CALLAO, LIMA, PERU",LIMA,LIMA,SAN MARTIN DE PORRES,-11.977729,-77.0928002,0.0,0.0,AUTOMOTRIZ EDITH EXPRESS SAC,65326.16,86761.58,77146.25,59628.51,61615.5,57648.52,69333.75,JUAN BUSTAMANTE,KAM PYME,ESTABLE,TIENDAS DE PARTES Y ACCESORIOS AUTOMOTRICES.,933283762
100000000115337,500b977eaac036c8acd4411235164da6f76619773094d53a8aa71447cf051bf6,20536401254,PUKU EL GOLF,"INT 101 PISO 1, CA. NARCISO DE LA COLINA 299, MIRAFLORES 15074, PERU",LIMA,LIMA,MIRAFLORES,-12.1182283,-77.0276651,16625.3,1011.0,LOCAL LARCO,1254445.3,1392576.68,1081937.195,1109396.3,1061512.3,1162854.8476,1093998.57,ARIANA HUERTA,KAM BE,TOP 10,RESTAURANTES DE COMIDA RAPIDA,943994712
182473,55850f85339c851aa5095700da0eeafb6bc587d5c462784fcc32748fd0c0bff0,20612402729,PAMER PERU,"AV CENTENARIO 290 - PISO 1 - REF ALTURA DEL MINISTERIO DE TRASPORTE, CALLERIA, CORONEL PORTILLO, UCAYALI, PERU",UCAYALI,CORONEL PORTILLO,CALLERIA,-8.3829341,-74.5421028,0.0,0.0,PAMER PERU,28954.7,33158.8,22826.0,24662.5,10143.5,12042.0,21434.05,YOSELIN TORNERO,KAM BDN,ESTABLE,"CONTRATISTAS DE TECHOS, REVESTIMIENTOS Y TRABAJOS DE CHAPA METÁLICA",951908884
100000000025902,526416a55383dae773f2addd60136d2e7ca35d69c0e20ad91948c988c1b205eb,20600019202,GRUPO JADE SAC,"PISO 2, AV. NICOLÁS DE PIÉROLA 865, VILLA MARÍA DEL TRIUNFO 15809, PERU",LIMA,LIMA,VILLA MARIA DEL TRIUNFO,-12.1663429,-76.949563,32740.608,795.0,GRUPO JADE SAC,166431.0,310219.0,280015.5,129357.6,0.0,0.0,0.0,PILAR PINEDA,KAM PYME,ESTABLE,"LUGARES PARA BEBER (BEBIDAS ALCOHÓLICAS) – BARES, TABERNAS, CLUBES NOCTURNOS, SALAS DE CÓCTELES Y DISCOTECAS. (DISCOTECAS, PEÑAS, BARES Y PUB'S)",984748146
100000000051827,243908eaf7f25c3de7bb2ada78e13b077e5a1a1cfa631aeafdae48b9ad170ff5,20513441208,LABOFTA REPARTO JC,"PISO 1, JR. HORACIO CACHAY DÍAZ 195, LA VICTORIA 15034, PERU",LIMA,LIMA,LA VICTORIA,-12.0877062,-77.0134238,212.9,2.0,LABOFTA - REPARTO AM,90384.085,91951.43,95047.4938,58932.9941,57549.48,77356.92,59724.3199,ARIANA HUERTA,KAM BE,ESTABLE,LABORATORIOS MÉDICOS Y DENTALES,926977526
100000000084532,4803e50d6ebc0e400488f55d57e1cf9b0a6a8eb900f9317bbf11f68b3d86a72b,20507590323,KUKULI HUANUCO,"PJE. CATALÁN, SANTIAGO DE SURCO 15038, PERU",LIMA,LIMA,SANTIAGO DE SURCO,-12.122614,-76.9917814,39426.8,379.0,KUKULI,357937.62,1296806.74,133253.34,109303.75,89178.42,94919.81,182349.48,ANABEL SANTAMARIA,KAM BDN,TOP 10,"UNIFORMES Y ROPA COMERCIAL PARA HOMBRES, MUJERES Y NIÑOS",948918283
100000000100999,4d9b411763fc2d42f528142f597e0e120e3c54ea2f7e4c4f3924252970b0601a,10748331218,SALUD NATURAL,"PISO 1, AV. DEFENSORES DEL MORRO 565, LIMA 15064, PERU",LIMA,LIMA,CHORRILLOS,-12.1691636,-77.0237892,3078.0,38.0,SALUD NATURAL,1912.0,2287.0,2251.0,1265.0,3175.0,1360.0,3005.0,JORGE RAMOS,KAM PYME,ESTABLE,"MINIMARKETS, BODEGAS, SUPERMERCADOS",976630632
100000000119988,3a0d61e257c1bdd99c30a113a5b0b79a938bd7a7ddcbf38cb1490ed86bb52a8c,20536080199,FRUTIX JP2-2,"AV. SEPARADORA INDUSTRIAL & AV LOS FRUTALES, LA MOLINA 15023, PERU",LIMA,LIMA,LA MOLINA,-12.0648152,-76.96477999999999,24652.37,1137.0,FRUTIX,119922.86,218437.1,227565.03,584915.67,556793.36,602666.85,640771.07,GUILLERMO MERINO,KAM BDN,TOP 10,PASTELERÍAS,954776734
100000000123499,081f87bd9b092a2d8d6a2899b782668944ecac97ee1575dab0b33b68fd794e5e,20609760860,J Y K EVENTOS,"ASOC U.N.C., CAJAMARCA 06002, PERU",CAJAMARCA,CAJAMARCA,CAJAMARCA,-7.1629745,-78.5011208,59581.0,712.0,LA VILLA,76303.76,86633.33,83296.27,103728.7,123671.54,58118.97,140452.39,VANESA UMERES,KAM PYME,ESTABLE,"MINIMARKETS, BODEGAS, SUPERMERCADOS",999999999
100000000150543,fcb7019fd3440a6ebe2bac7d090af30ee43110d6a69035897b281b2eebb5d051,10100771701,JUAN CACCHA,"V342+67V, AV JOSÉ OLAYA, LIMA 15812, PERU",LIMA,LIMA,VILLA MARIA DEL TRIUNFO,-12.1443859,-76.9493258,0.0,0.0,SATELITAL,13600.0,13334.0,7045.0,716.0,1028.0,2610.0,1400.0,ANABEL SANTAMARIA,KAM BDN,ESTABLE,SERVICIO DE TAXIS Y LIMOSINAS,960584235
100000000024101,1f5b4eb324fad9c9e5aa75d3c0d1631df291dfe2d6579ca2867730bba9a41dda,20569192367,NAPOS CHICKEN  NAPITO,"URB JOSE CARLOS MARIATEGUI MZ R3LT 26, NUEVO CHIMBOTE 02711, PERU",ANCASH,SANTA,NUEVO CHIMBOTE,-9.127552099999999,-78.5181526,114835.414,2084.0,NAPOS CHICKEN,125811.796,181156.08,118194.5,111861.64,105280.0,119055.7,126901.974,ANDRES RAMIREZ,KAM PYME,ESTABLE,RESTAURANTES Y VIDA NOCTURNA,958968489
100000000054528,babd1229b2d9914bd8bb09c8035bec231012c18b699221ea0f2b8828390392bf,20613023578,NOCHES DE FUEGO,"SANTA MARGARITA DE PIURA, PIURA 20009, PERU",PIURA,PIURA,VEINTISEIS DE OCTUBRE,-5.1674296,-80.66112989999999,69098.319,688.0,NOCHES DE FUEGO,80124.0,97751.6,48019.0,57980.9,60115.0,72475.0,75628.5,WALTER YARLEQUE,KAM PYME,ESTABLE,RESTAURANTES Y VIDA NOCTURNA,983309804
100000000094499,d8abcd5eadaf6d26f8131e313a06769c0038cd548132fb447adda5dc9e71ab98,20601274133,PDV AREQUIPA,"PISO 1, AV. LOS CONQUISTADORES 321, SAN ISIDRO 15073, PERU",LIMA,LIMA,SAN ISIDRO,-12.0993834,-77.036242,36322.48,212.0,PDV SAN ISIDRO,215472.55,86487.31,192347.25,161432.04,218952.76,217128.96,210993.68,LORENA RODAS,KAM PYME,ESTABLE,"UNIFORMES Y ROPA COMERCIAL PARA HOMBRES, MUJERES Y NIÑOS",945204125
100000000152377,102a3f3c0710b6d4f07645db031561787bba8fd81b27f6eef79bbee1d7a836a3,20485584880,SERVICENTRO SAN JOSE EIRL,"ABANCAY, PERU",APURIMAC,ABANCAY,ABANCAY,-13.6391954,-72.8929,0.0,0.0,SERVICENTRO SAN JOSE EIRL,189813.78,213702.19,215382.66,184474.07,195558.32,183050.45,181381.29,VIANUSSA CANO,KAM PYME,CRECIMIENTO,"ESTACIONES DE SERVICIO (CON O SIN SERVICIOS DE ASISTENCIA) / GRIFOS, SERVICIO Y EXPENDIO DE GASOLINA",993806630
100000000047888,3f03c541d2b87d2ab2bf3573b82e89e62ca5a1889af0782b037df211007e69a8,20545998115,LA FAMILIA CHICKEN & GRILL SAC,"AV. VICTOR MALASQUEZ 10, DISTRITO DE LIMA 15594, PERU",LIMA,LIMA,PACHACAMAC,-12.0961075,-76.8808521,121357.821,1786.0,LA FAMILIA CHICKEN & GRILL SAC,135865.4,125804.3,109089.7,103716.7,119375.8,128200.2,143007.55,LORENA RODAS,KAM PYME,CRECIMIENTO,"LUGARES PARA BEBER (BEBIDAS ALCOHÓLICAS) – BARES, TABERNAS, CLUBES NOCTURNOS, SALAS DE CÓCTELES Y DISCOTECAS. (DISCOTECAS, PEÑAS, BARES Y PUB'S)",990025090
100000000108609,249e0a50e508c7f97aab000f08922cf6bf226d0d9a172e6c8e120c84bbfc3879,20601634032,FASHION FACTORY-SCHELL 330,"PISO 1, CA. SCHELL 330, MIRAFLORES 15074, PERU",LIMA,LIMA,MIRAFLORES,-12.1231689,-77.0285525,48908.9,654.0,FASHION FACTORY,0.0,0.0,0.0,0.0,421.5,74.9,0.0,VANESA UMERES,KAM PYME,ESTABLE,"UNIFORMES Y ROPA COMERCIAL PARA HOMBRES, MUJERES Y NIÑOS",967741693
100000000136445,a7815e7343c1dbe6253da6c2328bfd27ec64188acbd87a8f4c719e262e3d8518,20601844916,QUETALCOMPRAPERU,"PISO 562, C. CHICLAYO 562, MIRAFLORES 15046, PERU",LIMA,LIMA,MIRAFLORES,-12.1147494,-77.0342336,9269.1,23.0,HONOR - CELL WORLD,21738.55,51510.8,40623.45,18356.5,40975.5,26602.4,34729.3,RODRIGO RIVERA,KAM BDN,ESTABLE,VENTAS DE EQUIPOS DE TELECOMUNICACIÓN Y TELÉFONOS,999999999
100000000021858,f210d599f634dac4d2822cbf6c9de48b3cfbb62eaa68142d03ad7301b6d42917,20609312280,HOME ASIA,"AVENIDA 28 DE JULIO 402, HUACHO 15136, PERU",LIMA,HUAURA,HUACHO,-11.1072044,-77.6082517,86385.151,2195.0,HOME ASIA,177418.6,433665.9,258890.8,192727.7,180392.95,195335.7,132746.7,WALTHER FAJARDO,KAM PYME,TOP 10,"LUGARES PARA BEBER (BEBIDAS ALCOHÓLICAS) – BARES, TABERNAS, CLUBES NOCTURNOS, SALAS DE CÓCTELES Y DISCOTECAS. (DISCOTECAS, PEÑAS, BARES Y PUB'S)",946335566
100000000055441,1d688c85bcce1f402f11df2c30920b6bc7ddf665afd95567346809c9b8cb8579,20603067534,CHIFA POLLERIA HONG KONG,"PLAZA 28 DE JULIO, CON, HUALLAGA &, C. SAN MARTIN, IQUITOS 16001, PERU",LORETO,MAYNAS,IQUITOS,-3.754612,-73.2493509,142929.33,2411.0,CHIFA POLLERIA HONG KONG,178932.55,259064.546,188697.901,158857.02,149215.51,161140.55,173769.747,MONICA VALENZUELA,KAM PYME,ESTABLE,RESTAURANTES Y VIDA NOCTURNA,915915915
100000000088913,f360b94273b311b0286fecb54b1825fe331d4313712bf42109490bfde898648c,20607818526,EUROSPORT WORKSHOP,"PISO 1, AVENIDA PRINCIPAL 503, SURQUILLO 15038, PERU",LIMA,LIMA,SURQUILLO,-12.1171142,-77.0058971,3690.0,2.0,EUROSPORT WORKSHOP,67613.419,81587.7675,50793.3,54898.7,63531.31,57894.15,50212.85,DANIEL LOVON,KAM PYME,ESTABLE,TALLERES DE SERVICIO AUTOMOTRIZ (NO COMERCIANTE),983644309
100000000089788,9f3b52171210ad6ec1e2de521cc7a7d2423f3e9961d3f68302f83f8960cd1ee8,20609538881,CENTRO ODONTOLÓGICO INTEGRAL BARRANCO S.R.L,"AV. ALMTE. MIGUEL GRAU 627, BARRANCO 15063, PERU",LIMA,LIMA,BARRANCO,-12.1454663,-77.02190619999999,0.0,0.0,COBADENT SRL,23706.44,46515.85,100918.85,50348.1298,57214.59,36302.75,70979.05,MONICA VALENZUELA,KAM PYME,ESTABLE,DENTISTAS Y ORTODONTISTAS,998898488
100000000092727,980711ff52c12e243105d616f201935813d183d6dd533e9cd1b62c939efdd8d0,20608107852,CHURROS VIRGEN DEL CARMEN,"PISO 1, JR. LAMPA 254, LIMA 01, PERU",LIMA,LIMA,LIMA,-12.0457889,-77.02835329999999,27752.8,3367.0,CHURROS VIRGEN DEL CARMEN,28357.1,41623.4,45055.3965,55794.1,65034.43,115393.28,118724.16,JORGE CALLE,KAM PYME,ESTABLE,RESTAURANTES Y VIDA NOCTURNA,952380052
100000000108148,f0a03f5e744d70b98ddd80701c9c17f11645694cd7e27d0ef3b2b75572d9f2cc,20480564660,LA TABERNA DISTRIBUCIONES - QUIÑONES,"MANUEL SEOANE, PIURA 20007, PERU",PIURA,PIURA,PIURA,-5.192246,-80.6494183,0.0,0.0,LA TABERNA DISTRIBUCIONES S.A.C,84820.87,321286.11,153042.74,112132.43,88871.03,103111.21,135007.67,ARIANA HUERTA,KAM BE,ESTABLE,PRODUCTOS PERECEDEROS (NO CLASIFICADOS EN OTRA MCC),920027526
100000000115691,75ae6c80b8552a13e7bf6889584c600fe7a25b9d65f846c6fd1d56ee85450d0b,15393591461,EL SABOR,"SAENZ PEÑA 580, PUCALLPA 25000, PERU",UCAYALI,CORONEL PORTILLO,CALLERIA,-8.3779497,-74.5354722,27420.5,586.0,EL SABOR,72377.5,199324.18,111891.5,126876.5,108861.0,126613.22,147653.0,VIANUSSA CANO,KAM PYME,ESTABLE,RESTAURANTES Y VIDA NOCTURNA,948556239
100000000136229,89605c9fe494d691c5d7c19836cf22c886bcfdf09d660888eff6aa2112d66ae4,20109214222,TANGUIS TT10,"PISO 2, AV. JOSÉ LARCO 351, MIRAFLORES 15074, PERU",LIMA,LIMA,MIRAFLORES,-12.1208333,-77.0288889,132390.0,340.0,TANGUIS TT1,42549.8,74348.25,141410.8,90662.4,531614.45,635024.1,1004817.2,LIZET GUEVARA,KAM BDN,ESTABLE,CALZADO COMERCIAL,966582317
216013,f1b91cb7388ffbada4e9bdd4547b9fe0b8f6cd9c20669ff225694119526fc975,20608892649,IMPORTADORA PANDA,"CAL.ALTO DE LA LUNA NRO. 322 URB. CERCADO - PISO 2 - REF CERCADO DE AREQUIPA, AREQUIPA, AREQUIPA, AREQUIPA, PERU",AREQUIPA,AREQUIPA,AREQUIPA,-16.4040481,-71.53410819999999,0.0,0.0,IMPORTADORA PANDA,28798.04,43034.9,25068.06,16540.56,21932.06,28826.25,25655.85,VIANUSSA CANO,KAM PYME,ESTABLE,ALMACENES DE SUMINISTROS PARA EL HOGAR,981333284
100000000005570,f56632e2767bd6d180c635785dea5afed483e53342f34991fc42f7d536b2af54,20514304921,GRUPO INTIFARMA,"INT 4 PISO 4, AV. LOS INSURGENTES 711, LA PERLA 07011, PERU",CALLAO,CALLAO,LA PERLA,-12.0685813,-77.1043322,26019.093,1223.0,GRUPO INTIFARMA,7223.4,21271.4,32876.8,31465.1,32523.7,31618.7,30521.7,PILAR PINEDA,KAM PYME,ESTABLE,PODÓLOGOS Y PEDICUROS,995555655
100000000032969,f2ccdb7a44ff8aea1395f630d99ee7216975fc462ac70713e91c35bd721c3c99,10733773451,RACSA IMPORT 5,"PJE. CORONEL ALFONSO UGARTE, CHIMBOTE 02801, PERU",ANCASH,SANTA,CHIMBOTE,-9.0743939,-78.58563,0.0,0.0,RACSA IMPORT S.A.C. 1,0.0,0.0,0.0,12499.9,5651.5,4451.2,2713.6,AARÓN GARCÍA,KAM PYME,ESTABLE,MERCADERÍA MISCELÁNEA (BAZARES Y TIENDAS DE REGALO),922010038
100000000050829,8c691d6a24dc0569873eacbcf86af3dd561afb80375bf3f974d4cae81d969e0d,10107889189,LA FEMME 2,"AV. CAMINOS DEL INCA 665, SANTIAGO DE SURCO 15038, PERU",LIMA,LIMA,SANTIAGO DE SURCO,-12.1174603,-76.9894401,860.0,5.0,CLINICA LA FEMME,880.0,2090.0,1920.0,210.0,550.0,420.0,8260.0,VANESA UMERES,KAM PYME,ESTABLE,OTROS SERVICIOS MÉDICOS,936286179
100000000092915,177cd20c6db4028d49eb7d3db5144f04b8b3ae032558e05ae4c5522d34456363,20612557994,CARBÓN CHICKEN,"PISO 2, AV. JOSÉ GRANDA 3435, SAN MARTÍN DE PORRES 15107, PERU",LIMA,LIMA,SAN MARTIN DE PORRES,-12.0231155,-77.0828499,13815.0,299.0,CARBÓN CHICKEN,67778.0,106050.1,90050.2,84021.3,82342.8,83518.0,79584.5,JUAN BUSTAMANTE,KAM PYME,ESTABLE,PASTELERÍAS,941706923
100000000118904,c556bd221c837f42af85ee618b2fef682f5732728a3b3f823ce45271b3f9c962,20611550970,FOOD EXPERIENCES PERU S.A.C.,"NRO B, URB. LUCREPATA 11, CUSCO 08000, PERU",CUSCO,CUSCO,CUSCO,-13.514943,-71.9711817,0.0,0.0,OAKBERRY,65971.0,83597.1,80760.7,91219.9,84547.32,84160.2,83588.8,LORENA RODAS,KAM PYME,TOP 10,TIENDAS DE PRODUCTOS LÁCTEOS.,986273979
100000000130965,867b9d2d2f145b7ec8dcaaaa854317da5e3ddcf2f0fb4dc904b80d52d3844a8e,20524968534,DMASA,"PISO 1, AV. SAN LUIS 1002, SAN LUIS 15021, PERU",LIMA,LIMA,SAN LUIS,-12.0771565,-77.0001978,0.0,0.0,FARINA LIGHT E.I.R.L.,44611.6,54115.1,59523.6,66655.2,68813.54,68283.1,65134.91,JORGE CALLE,KAM PYME,ESTABLE,PASTELERÍAS,999999999
100000000136152,49cb5c6e3b172b2db829603166bbf338c092b55fe51230257eceb4a425e69d84,20610300023,BOXISS,"2DO PISO, AV. JOSÉ PARDO 610, MIRAFLORES 15074, PERU",LIMA,LIMA,MIRAFLORES,-12.1188446,-77.0352316,62315.0,857.0,BOXISS,89228.59,86160.95,85747.86,47590.9,62160.51,89576.36,96563.2,MONICA VALENZUELA,KAM PYME,CRECIMIENTO,"LUGARES PARA BEBER (BEBIDAS ALCOHÓLICAS) – BARES, TABERNAS, CLUBES NOCTURNOS, SALAS DE CÓCTELES Y DISCOTECAS. (DISCOTECAS, PEÑAS, BARES Y PUB'S)",999999999
100000000033084,765bfd496b79f010992dead7f06f41bb051817aaeadec368d838aff204f711be,20502062388,DIREPSA SAC - CANTA CALLAO,"2WG5+4RM, AV. CANTA CALLAO, SAN MARTÍN DE PORRES 15112, PERU",LIMA,LIMA,SAN MARTIN DE PORRES,-11.9746593,-77.0904664,25975.14,75.0,DIREPSA SAC - CANTA CALLAO,71173.9731,51669.9871,65940.0152,57508.4193,96931.9681,66286.3111,75301.0045,JUAN BUSTAMANTE,KAM PYME,ESTABLE,TIENDAS DE PARTES Y ACCESORIOS AUTOMOTRICES.,983461499
100000000098322,ab40d40ac6205866ed346cc8743e13a51b42e54bb1dcf3b76cbfe3386c7cb31f,20479999016,PIZZERIA VENECIA,"AV. JOSÉ BALTA 365, CHICLAYO 14001, PERU",LAMBAYEQUE,CHICLAYO,CHICLAYO,-6.7743937,-79.8388327,0.0,0.0,PIZZERIA VENECIA,63824.08,75190.35,57034.55,75767.5,62799.5,63521.3,47928.0,VANESA UMERES,KAM PYME,ESTABLE,RESTAURANTES Y VIDA NOCTURNA,978438972
100000000104491,b0d405a918ad5e5748df7f4941a465b7aa8d9b045b92bdf2ab93061daf842850,20613620398,HANGERTIPS,"PISO 2, CALLE THOMAS 125, SURQUILLO 15038, PERU",LIMA,LIMA,SURQUILLO,-12.1187363,-77.001578,198700.9,1774.0,HANGERTIPS,183950.75,262294.55,251943.8,226186.5,233757.7,258892.4,246234.2,DANIEL LOVON,KAM PYME,ESTABLE,"UNIFORMES Y ROPA COMERCIAL PARA HOMBRES, MUJERES Y NIÑOS",924154359
100000000119223,7e81caff66537ef53eac3a8da1a7d47546efb28387f04cac9995dfa21210c02d,10238846035,HOTEL AYENDA CASA ESCONDIDA -SAN CRISTOBAL PREMIUM,"C. SIETE BORREGUITOS, CUSCO, PERU",CUSCO,CUSCO,CUSCO,-13.5123044,-71.9782667,0.0,0.0,HOTEL SAN CRISTÓBAL PREMIUN - CASA ESCONDIDA - CHINCANA WASI,28028.799,47943.3382,27398.6561,53328.2178,55800.4682,35892.9326,50285.0658,GUSTAVO MENDOCILLA,KAM PYME,ESTABLE,"SERVICIOS DE PROGRAMACIÓN, DESARROLLO Y DISEÑO",974782832
100000000120063,cb177200c226d50403c6d9d39be55665c8f2fbf7c37642262fda68f950952b7c,20100211115,LA IBERICA MARTIR OLAYA,"PISO 205, C. MÁRTIR JOSÉ OLAYA 205, MIRAFLORES 15074, PERU",LIMA,LIMA,MIRAFLORES,-12.1203759,-77.03012489999999,0.0,0.0,LA IBERICA - LIMA,119490.16,577767.16,150187.16,226028.0155,759889.705,755809.6163,889234.4584,ARIANA HUERTA,KAM BE,ESTABLE,"MINIMARKETS, BODEGAS, SUPERMERCADOS",999999999
100000000009986,60ba6090980038a78d9cd5237f1926c48504056684a88e011fe9a6c1b1ea94a4,20512218424,TRIMAX AREQUIPA,"PISO 1, JR. NAPO 171, BREÑA 15082, PERU",LIMA,LIMA,BREÑA,-12.0519605,-77.0522586,27099.294,23.0,TRIMAX NAPO,173741.7946,161706.3657,95020.852,185357.979,109356.5695,134273.0888,106065.38,ANABEL SANTAMARIA,KAM BDN,CRECIMIENTO,PRODUCTOS NO PERECEDEROS (NO CLASIFICADOS EN OTRA MCC),998751216
100000000098697,97ba766ca575b83e74f5511db744ad21d4a81878461ef7e71814575bd1adfec1,20608184091,MEYERHOF,"AV. JOSÉ LARCO 880, MIRAFLORES 15074, PERU",LIMA,LIMA,MIRAFLORES,-12.1266021,-77.0296351,4940.0,6.0,MEYERHOF PERU,0.0,0.0,0.0,15020.0,166691.0,224038.0,230610.0,PILAR PINEDA,KAM PYME,ESTABLE,ALMACENES DE SUMINISTROS PARA EL HOGAR,998364035
100000000111273,cb3bb3fb050f40aab7af47980a104919861c6995fa5dc7a1dabbe2da64248293,20605268812,CROISSANT & CAFFE LARCOMAR,"C.C. LARCOMAR, MAL. DE LA RESERVA 610, MIRAFLORES 15074, PERU",LIMA,LIMA,MIRAFLORES,-12.132457,-77.0301595,0.0,0.0,LA CAFFETTERIA,83290.4,127640.9,125719.9,91746.0,99693.45,116405.15,116551.85,RICARDO TERAN,KAM PYME,TOP 10,PASTELERÍAS,985672161
100000000120078,cb177200c226d50403c6d9d39be55665c8f2fbf7c37642262fda68f950952b7c,20100211115,LA IBERICA TIENDA CAYMA,"JF63+643, AV. CAYMA, CAYMA 04017, PERU",AREQUIPA,AREQUIPA,CAYMA,-16.3894791,-71.5471902,0.0,0.0,LA IBERICA - LIMA,119490.16,577767.16,150187.16,226028.0155,759889.705,755809.6163,889234.4584,ARIANA HUERTA,KAM BE,ESTABLE,"MINIMARKETS, BODEGAS, SUPERMERCADOS",999999999
100000000116118,9e1b3ee8a0254336fe8d90cae4f8251a9a1b37f40faee69f95d3200c440e832e,20603412924,BOTICA AMERICA,"PISO 1, AV. SAN MARTÍN 401, CARABAYLLO 15313, PERU",LIMA,LIMA,CARABAYLLO,-11.8999505,-77.03328650000002,0.0,0.0,BOTICA AMERICA,106813.47,131217.38,120425.83,117987.2,118965.65,121496.69,125931.88,WALTHER FAJARDO,KAM PYME,ESTABLE,HOSPITALES (CLINICAS Y CENTROS MEDICOS),983311893
100000000020890,1ce4828bf051043d30c6d446197b5765ff3401e8b9e20662b310b24b0ca15a8d,20440459588,TIENDAS APOLO SAC,"CHICAGO, TRUJILLO, PERU",LA LIBERTAD,TRUJILLO,TRUJILLO,-8.1150796,-79.0185932,52036.95,560.0,TIENDAS APOLO SAC,49216.5,398406.31,139567.74,44673.68,35770.43,36759.66,41014.76,LIZET GUEVARA,KAM BDN,PRECHURN,"MINIMARKETS, BODEGAS, SUPERMERCADOS",994330598
100000000099191,6ecc3332279bde28d9c5c84cba2e5fed80ba1ba2638d4ef6fd87223fb7b2e197,20295833743,SERFAC S.A.C.,"PISO 1, AV. AVIACIÓN 2618, SAN BORJA 15036, PERU",LIMA,LIMA,SAN BORJA,-12.0928401,-77.0031022,6011.0,15.0,SERFAC S.A.C.,13989.8,13248.2318,108123.7255,106690.57,25575.0,36920.0,66584.0,LUIS PEREZ,KAM BDN,PRECHURN,TALLERES DE REPARACIÓN Y SERVICIOS RELACIONADOS,998126088
200000000003716,0e07fc7345f078ac1300a53e6269cc8e418a56626c9c37787e91d6318a3a690a,20520528076,PERFUMERIA Y REGALOS ESMERALDA,AV. BENAVIDES NRO. 3341 INT. 27 ,LIMA,LIMA,SANTIAGO DE SURCO,-77.00028991699219,-12.128682136535645,0.0,0.0,PERFUMERIA EDALSE E.I.R.L.,34424.4,58927.4,36034.7,34129.7,27533.6,24624.1,27584.9,PILAR PINEDA,KAM PYME,ESTABLE,TIENDAS DE COSMÉTICOS,959761181
200000000049887,3917b0522758773a57f332a76a1523a6254b763c9dacca92247139b795cfe019,20610836926,BOLICHERA 2335,CA. LAS TIENDAS 223 URB. LIMATAMBO,LIMA,LIMA,SURQUILLO,-12.10399762,-77.021178372,107891.945,1104.0,BOLICHERA 2335,106870.02,116520.8,80701.21,67131.74,70270.43,73721.1,75847.76,GARY AQUINO,KAM PYME,CRECIMIENTO,RESTAURANTES Y VIDA NOCTURNA,981330520
100000000051814,243908eaf7f25c3de7bb2ada78e13b077e5a1a1cfa631aeafdae48b9ad170ff5,20513441208,LABOFTA REPARTO JA,"PISO 1, JR. HORACIO CACHAY DÍAZ 195, LA VICTORIA 15034, PERU",LIMA,LIMA,LA VICTORIA,-12.0877062,-77.0134238,0.0,0.0,LABOFTA - REPARTO AM,90384.085,91951.43,95047.4938,58932.9941,57549.48,77356.92,59724.3199,ARIANA HUERTA,KAM BE,ESTABLE,LABORATORIOS MÉDICOS Y DENTALES,926977526
100000000085408,43d6bd831a366a52a6fddf6b37d134853c869672ebb134223769d44088c56da1,20526233329,HOJALDRE OPEN PLAZA,"CRUCE MARISCAL, AV. ANDRÉS AVELINO CÁCERES Y, PIURA 20002, PERU",PIURA,PIURA,CASTILLA,-5.182278999999999,-80.62213899999999,20139.2,2157.0,HOJALDRE OPEN PLAZA,111610.6,159324.64,117474.3,105494.17,103056.58,101048.1,106245.95,WALTER YARLEQUE,KAM PYME,ESTABLE,PASTELERÍAS,978286180
100000000136284,c2358bf1d7b7ab1e13265d7dc9e296b609246e0a6844a0d86228b65e7fe5ad2e,20203599430,TORTAS GABY  ARCO IRIS,"PISO 1, C. DEL ARCO IRIS 175, LIMA 15038, PERU",LIMA,LIMA,SANTIAGO DE SURCO,-12.1275889,-76.9888125,2472.8,75.0,TORTAS GABY,563346.66,910530.31,821163.056,800603.51,811700.89,819356.5832,796107.65,GUILLERMO MERINO,KAM BDN,TOP 10,PASTELERÍAS,938582157
100000000105053,5eae957b0e520b9124b8bfd78e5e169eba42737121335c86c0a10b3625d04a94,10407822442,AMADEUS-TABERNA,"PISO 0, AV. MARISCAL TORIBIO DE LUZURIAGA 292, HUARAZ 02001, PERU",ANCASH,HUARAZ,HUARAZ,-9.5262788,-77.5288861,38655.465,1116.0,AMADEUS-TABERNA,59023.6,68850.5,62674.0,52438.0,50460.5,54187.7,48669.0,LUIS PEREZ,KAM BDN,ESTABLE,"LUGARES PARA BEBER (BEBIDAS ALCOHÓLICAS) – BARES, TABERNAS, CLUBES NOCTURNOS, SALAS DE CÓCTELES Y DISCOTECAS. (DISCOTECAS, PEÑAS, BARES Y PUB'S)",986162999
100000000118325,25f24c6fa274e3eca6d6050dcb992132c6d36629faf409ba2b913e683a0a3645,20338395290,TIENDA PREMIUM OUTLET EL POLO,"AV EL POLO 670, EL POLO 1, SANTIAGO DE SURCO 15023, PERU",LIMA,LIMA,SANTIAGO DE SURCO,-12.1013902,-76.970967,56006.853,143.0,TIENDA HUGO BOSS - CC JOCKEY PLAZA,2084479.11,4557201.5277,3379912.4936,2357940.5328,2673927.781,3185072.8679,3122665.0406,LUIS PEREZ,KAM BDN,TOP 10,"UNIFORMES Y ROPA COMERCIAL PARA HOMBRES, MUJERES Y NIÑOS",934595330
100000000141451,f2b4789bbd946fbd6e20abd044550189f677fedf464622c738856fa94f0a0723,20610745319,CONAMU LINCE 2,"LINCE, PERU",LIMA,LIMA,LINCE,-12.0848075,-77.0355629,0.0,0.0,CONAMU,386465.4,412496.8,391649.4,417249.7,390165.038,421215.85,432186.6,ANDRES RAMIREZ,KAM PYME,TOP 10,PASTELERÍAS,919295306
200000000042787,f4410ec3a419dfbc3def6f47c11fc9ff72b0c2ec9147d4dc51e4ef8f79207478,10098145376,KONOMI,CA. PARACAS 565 URB. LA FIORI,LIMA,LIMA,PUEBLO LIBRE,-12.07176264,-77.076750004,66175.964,1122.0,KONOMI,66833.5,60499.5,82078.1,65056.3,63684.0,73571.0,60859.0,GARY AQUINO,KAM PYME,ESTABLE,PASTELERÍAS,988555559
100000000025358,0cfcce87c005bb11c6c558a7684d9b1be3bfaf4fc5231d0469a9ce71254ba525,10098662761,DOCTORA URSULA RIVAS,"JR. PUMACAHUA 2776, LIMA 15073, PERU",LIMA,LIMA,LINCE,-12.0914561,-77.0424364,37133.26,48.0,DOCTORA URSULA RIVAS,0.0,33726.24,57526.08,41694.64,39243.88,31873.84,34779.04,LUIS PEREZ,KAM BDN,RECUPERO,OTRO SERVICIOS PROFESIONALES,955642250
100000000093623,e6dbc3f9cb72e4c42cf0fb2ec390cfef9bc66dd141cdde81d693ade571d8db28,20606601311,KILLARI RESTAURANT,"AV. ALFREDO MENDIOLA, SAN MARTÍN DE PORRES, PERU",LIMA,LIMA,INDEPENDENCIA,-11.9833665,-77.0647174,4951.0,87.0,KILLARI,9085.7,11782.65,9971.4,8940.5,7870.3,10028.3,10421.3,JUAN BUSTAMANTE,KAM PYME,PRECHURN,RESTAURANTES Y VIDA NOCTURNA,981306633
100000000094432,e66339e2bd9cba4beba0cf6ed8c957a342ca2469ed698616f0b11aa33c035a68,20600791410,RECEPCIONES AMAZONAS,"PISO 2, JIRÓN LORETO 736, BREÑA 15082, PERU",LIMA,LIMA,BREÑA,-12.0571436,-77.0484244,35875.0,373.0,AMAZONAS RESTAURANT,40761.45,52574.7,51465.9,49746.57,47399.4,61143.27,70180.94,GUSTAVO MENDOCILLA,KAM PYME,ESTABLE,RESTAURANTES Y VIDA NOCTURNA,984619253
100000000105659,fc684a8e6408213adad84c449bea49977360c5efe12162bf27712e0e033b8939,20609449277,LICORERIA CABALLO BLANCO,"CASTILLA 939, MAGDALENA DEL MAR 15086, PERU",LIMA,LIMA,MAGDALENA DEL MAR,-12.0879877,-77.07276379999999,34223.69,683.0,EL CABALLO BLANCO,17089.65,57553.06,27281.0,22455.5,23917.0,16614.99,17994.0,LORENA RODAS,KAM PYME,ESTABLE,PRODUCTOS PERECEDEROS (NO CLASIFICADOS EN OTRA MCC),985004629
100000000112238,ffef4e98693cfbb96db9d705c4b013729b1141c91644cadb6f7f7cbd2f01827c,20609959321,IMPORT Y EXPORT ZHONGYI,"AV ALAMEDA SUR 549, CHORRILLOS 15067, PERU",LIMA,LIMA,CHORRILLOS,-12.1961433,-77.01028029999999,0.0,0.0,IMPORT Y EXPORT ZHONGYI S.A.C.,121206.16,289179.0,0.0,0.0,0.0,0.0,0.0,VICTOR ALVARADO,KAM PYME,ESTABLE,PRODUCTOS NO PERECEDEROS (NO CLASIFICADOS EN OTRA MCC),924721594
100000000136472,59c1d6df31461826f059d9e48648b4911fd1dd8b574d82e9db501f38fa1557f7,20604315574,DERMACOACH SAC  LINK,"OF. 605, C. VICTOR MAÚRTUA 140, SAN ISIDRO 15073, PERU",LIMA,LIMA,SAN ISIDRO,-12.1072158,-77.0404734,15575.98,46.0,DERMACOACH,60220.65,71396.25,109105.52,69923.95,109692.36,67906.1,113823.12,LORENA RODAS,KAM PYME,ESTABLE,OTRO SERVICIOS PROFESIONALES,932701001
100000000093070,909da50f4f2e369d5228e7fa1a0c70e0bf7be955e430fc29fdedf6928334af7d,20611950196,IMPORTADORA DE REPUESTOS ANDINOS SAC,"AV. ANGAMOS ESTE 997, SURQUILLO 15047, PERU",LIMA,LIMA,SURQUILLO,-12.1129917,-77.0213993,800.0,1.0,REPUESTOS Y ACCESORIOS ANDINOS,14836.0,13765.0,20772.0,20222.0,9625.0,20870.0,11395.0,CYNTHIA CARRION,KAM PYME,CRECIMIENTO,SUMINISTROS DE AUTOMÓVIL Y PIEZAS NUEVAS,994065907
100000000095819,ccafaf5041cc1ee96c83edbe37d7022ad0763b1d203186e639256a6b821f1e1e,20606181583,DISTRIBUCIONES LA ANGOSTURA S.A.C.,"LA ANGOSTURA, ICA 11004, PERU",ICA,ICA,ICA,-14.0493532,-75.75313849999999,103404.89,35.0,DISTRIBUCIONES LA ANGOSTURA S.A.C.,42732.55,48711.91,51562.89,34827.87,72481.03,62227.94,59828.63,RICARDO TERAN,KAM PYME,ESTABLE,"UTENSILIOS DE METAL, EQUIPOS Y SUMINISTROS",968046335
100000000100781,6487ba3c11f876e3c35eb926ddf605933a1f5f06fcb24909c989a88698c7eb5d,10430717044,DISCOTECA RHUNAS,"JR. SUCRE, AYACUCHO 05003, PERU",AYACUCHO,HUAMANGA,AYACUCHO,-13.156413,-74.2291578,0.0,0.0,DISCOTECA RHUNAS,394.0,101.0,0.0,8356.06,10688.0,2419.0,226.2,ANDRES RAMIREZ,KAM PYME,ESTABLE,"LUGARES PARA BEBER (BEBIDAS ALCOHÓLICAS) – BARES, TABERNAS, CLUBES NOCTURNOS, SALAS DE CÓCTELES Y DISCOTECAS. (DISCOTECAS, PEÑAS, BARES Y PUB'S)",969677868
100000000031525,f2a74ed296718ffccc2519cf7df35749e2b2355b4a7d8668b592517867948823,20452391105,BOTICA NOVAFARMA AMERICA,"1ER PISO, CALLE ITALIA 187, CHINCHA ALTA 11701, PERU",ICA,CHINCHA,CHINCHA ALTA,-13.4168204,-76.1338595,0.0,0.0,NOVAFARMA CHINCHA,106334.75,125435.11,127244.1,104366.95,108568.69,94062.7,120244.79,GARY AQUINO,KAM PYME,ESTABLE,LABORATORIOS MÉDICOS Y DENTALES,939084179
100000000048522,ba38cc1d6e1872bd6af1e1847d0be3d7307d11b2f76629bd6ff30eb75aa9b55e,20543542157,MEDICOS SOLIDARIOS CHICLAYO,"PISO A, JR. C. A. SALAVERRY 3834, LOS OLIVOS 39, PERU",LIMA,LIMA,INDEPENDENCIA,-11.9893438,-77.0652605,15590.55,215.0,VINALI,36312.0,49960.0,49196.4,31088.0,45718.0,41932.0,34468.4,RODRIGO RIVERA,KAM BDN,ESTABLE,HOSPITALES (CLINICAS Y CENTROS MEDICOS),940372448
100000000054880,187149d95c82d74c36d898b51aab37bedb51de10ffeb22563b31b98f67c23a47,10329413441,MIAMI BEACH PERUANO,"PLAZA MAYOR DE NUEVO CHIMBOTE, NUEVO CHIMBOTE 02711, PERU",ANCASH,SANTA,NUEVO CHIMBOTE,-9.1220885,-78.5311232,97011.05,71.0,MIAMI BEACH PERUANO,27751.21,76740.61,169446.89,234062.42,110769.66,177840.27,218409.9395,JORGE RAMOS,KAM PYME,PRECHURN,CONTRATISTAS GENERALES – RESIDENCIAL Y COMERCIAL,992481886
100000000076144,dd044b12660d640e207e90c21671c8a6a24a7404c1472981b4370a105ab77539,20605759760,SUPER MASS,"C. APURIMAC 118, ATE 15001, PERU",LIMA,LIMA,ATE,-12.0320026,-76.9356392,11848.1,384.0,SUPER MASS,12818.2,27825.9,2784.6,2876.4,2928.9,3173.0,2917.6,VIANUSSA CANO,KAM PYME,ESTABLE,TIENDAS MINORISTAS MISCELÁNEAS Y ESPECIALIZADAS,936648664
100000000085381,763ce5904906a6a9717502f820c58bf7bd0e39061853aadd0358895770c5a7eb,20516279975,AS MIRAFLORES  2,"AV. 1RO DE MAYO & AV. MARIANO PASTOR SEVILLA, VILLA EL SALVADOR 15829, PERU",LIMA,LIMA,VILLA EL SALVADOR,-12.1982584,-76.95741799999999,348.92,3.0,HUAYLAS,1584.4,3952.1,1771.3,4397.67,3475.29,5340.69,5633.73,YOSELIN TORNERO,KAM BDN,ESTABLE,CABLE SATELITE Y OTROS SERVICIOS PAGADOS DE TELEVISIÓN Y RADIO,958826256
100000000098701,bcac6d0e3cc88cce8b5417f529ef7cb11c0ba1175459a4e00f251674b4e4bf45,20612799556,CORPORACION ASUNTA STORE,"PISO 2, C. INCA ROCA 232, CUSCO 08002, PERU",CUSCO,CUSCO,CUSCO,-13.5162371,-71.9757376,79344.0,909.0,ARTESANIA ASUNTA,367284.65,395960.3,297008.8,509545.08,456332.72,485577.39,469868.7,VICTOR ALVARADO,KAM PYME,ESTABLE,"PRODUCTOS POR PIEZA, NOCIONES Y OTROS PRODUCTOS SECOS",966435371
100000000098734,7702a005ea0e21429f066196f5b713ebcfbc8dd485a01c3c337cd38be92eba1e,20608640445,MOTOQUAD PERU SAC,AV. AMERICA NORTE NRO. 1030 URB. LOS JARDINES LA LIBERTAD - TRUJILLO - TRUJILLO,LA LIBERTAD,TRUJILLO,TRUJILLO,-8.09477941,-79.02118616,7004.0,3.0,MOTOQUAD PERU SAC,69470.13,62466.33,97152.385,97958.59,103888.92,55499.69,65747.34,GUSTAVO MENDOCILLA,KAM PYME,ESTABLE,TIENDAS DE PARTES Y ACCESORIOS AUTOMOTRICES.,949669910
200000000046960,56597773b74ee264bbb4eb9a6a51b3bb7cef812877ab9b8eafde6895520ef3ba,20600113519,BOTICAS INNOVA CALLAO,AV LIMA 3600,LIMA,LIMA,SAN MARTIN DE PORRES,-77.08551025390625,-12.028528213500977,4782.6,289.0,BOTICAS INNOVA 3 DE ENERO,481258.87,574162.67,505001.08,482219.9,465761.03,428428.23,378921.77,WALTHER FAJARDO,KAM PYME,TOP 10,PRODUCTOS PERECEDEROS (NO CLASIFICADOS EN OTRA MCC),925589348
100000000032476,0a76c463d40e4f8dd2c594c4492236c859a4d0fd714c2ebd7a3494cfe6e50049,20610691464,MINIMARKET ALONDRA PLUZZ,"LT 31, CTRA. CENTRAL 912, CHACLACAYO 15476, PERU",LIMA,LIMA,CHACLACAYO,-11.9908316,-76.8214428,22267.109,818.0,MINIMARKET ALONDRA PLUZZ,47553.4,58116.4,56870.6,53036.4,55885.8,57547.03,40847.5,RICARDO TERAN,KAM PYME,ESTABLE,"MINIMARKETS, BODEGAS, SUPERMERCADOS",966957512
100000000051559,b70d80c9f1f76b78fd1e45a9dc2214eff032ee8f0dd5ac93b8c29ba812d5030a,10754947026,CARDE 4,"MZ G, TRUJILLO 13011, PERU",LA LIBERTAD,TRUJILLO,TRUJILLO,-8.109245,-79.0421858,6636.0,85.0,RESTAURANTE CARDENAL,2815.0,6717.5,4433.0,4185.0,7043.0,9266.0,2765.0,LUIS DE LUCIO,KAM PYME,ESTABLE,PASTELERÍAS,970899051
100000000075547,513bea373f0fbc025a12792ce9656318d5ab3d992feafdac366b64c083463eb4,10463425057,MEDICAL LIFE,"PISO 1, BARBERIA BLESS & BLADE, AV. CAMINOS DEL INCA 2525, LIMA 15039, PERU",LIMA,LIMA,SANTIAGO DE SURCO,-12.1371652,-76.9838972,9970.0,44.0,MEDICAL LIFE,4390.0,7699.0,9735.0,12435.0,17070.0,10580.0,9830.0,GARY AQUINO,KAM PYME,ESTABLE,HOSPITALES (CLINICAS Y CENTROS MEDICOS),901229807
100000000098278,bab63d011f907f1b6da1d211b4924c0e40486442f965f914c4b6629c79b43572,20613039971,VIP TRAVEL 691,"AV. EJÉRCITO 795, CAYMA 04013, PERU",AREQUIPA,AREQUIPA,CAYMA,-16.3902726,-71.5465425,24092.367,20.0,VIP TRAVEL 610,111937.4957,126922.5275,77852.9179,113866.9789,188896.1864,118047.6429,86672.8007,PILAR PINEDA,KAM PYME,ESTABLE,AGENCIAS DE VIAJE Y OPERADORES TURÍSTICOS,970885743
100000000100779,6487ba3c11f876e3c35eb926ddf605933a1f5f06fcb24909c989a88698c7eb5d,10430717044,DISCOTECA RHUNAS,"9 DE DICIEMBRE, AYACUCHO, PERU",AYACUCHO,HUAMANGA,AYACUCHO,-13.1573208,-74.2257265,8118.0,292.0,DISCOTECA RHUNAS,394.0,101.0,0.0,8356.06,10688.0,2419.0,226.2,ANDRES RAMIREZ,KAM PYME,ESTABLE,"LUGARES PARA BEBER (BEBIDAS ALCOHÓLICAS) – BARES, TABERNAS, CLUBES NOCTURNOS, SALAS DE CÓCTELES Y DISCOTECAS. (DISCOTECAS, PEÑAS, BARES Y PUB'S)",969677868
100000000130136,e05f6a582f044b1f81b515edae9937146d03f0e1b607882a8faf5f3aa5b3389b,20554501371,ARQUEROSPERU SAN MIGUEL,"LA FLORIDA, LIMA, PERU",LIMA,LIMA,RIMAC,-12.0234246,-77.03413760000001,16106.7,88.0,ARQUEROSPERU SAN MIGUEL,43796.6,71910.3,39501.35,53436.09,55047.97,67276.5,72126.03,VICTOR ALVARADO,KAM PYME,ESTABLE,TIENDAS DE MERCANCÍAS DEPORTIVAS,999999999
100000000135625,636cdc8756ead037dca2a2eeae855fed6c84d41acd76bcf4981622bec7533d40,20382748566,SOAT CAJA HUANCAYO,"PISO 2601, AV. JAVIER PRADO ESTE 492, SAN ISIDRO 15046, PERU",LIMA,LIMA,LINCE,-12.0920852,-77.0284248,0.0,0.0,INTERSEGURO,4124048.6128,5045286.857,5071885.3348,5275344.6715,5434281.9104,5386594.4701,5405288.7843,ARIANA HUERTA,KAM BE,TOP 10,MERCADEO DIRECTO - SERVICIOS DE SEGUROS,999999999
100000000136509,36a22998d5f4f8eef8c0e52872493cce1d4050a771ea724080542bea01f4ae62,20611842920,KREAR 3D ONLINE,"2WX7+RPX, AV. 2 DE OCTUBRE, SAN MARTÍN DE PORRES 15307, PERU",LIMA,LIMA,LOS OLIVOS,-11.9503768,-77.0856336,65687.0,99.0,KREAR 3D,535283.85,651019.5,546177.05,474057.5,542493.5,499036.9,476453.47,DANIEL LOVON,KAM PYME,TOP 10,EQUIPOS COMERCIALES (NO CLASIFICADOS EN OTRO MCC),981104030
100000000136934,e6892a6c3b7cbcbf807dfeda07fc035f244928fcb34e6adc4046e5603358981f,20510983662,MOIXX JESUS MARIA,"116, ALAMEDA DEL CORREGIDOR 290, LA MOLINA 15024, PERU",LIMA,LIMA,LA MOLINA,-12.0799472,-76.9551591,0.0,0.0,CORPORACION TEXTIL,18905.77,48061.25,65062.59,18462.65,192874.93,90236.59,230843.21,LUIS PEREZ,KAM BDN,ESTABLE,"UNIFORMES Y ROPA COMERCIAL PARA HOMBRES, MUJERES Y NIÑOS",954135839
200000000046892,56597773b74ee264bbb4eb9a6a51b3bb7cef812877ab9b8eafde6895520ef3ba,20600113519,BOTICAS INNOVA SAN FELIPE,AV. UNIVERSITARIA NORTE CDRA 10,LIMA,LIMA,COMAS,-11.9042837145,-77.042131529,13353.254,525.0,BOTICAS INNOVA 3 DE ENERO,481258.87,574162.67,505001.08,482219.9,465761.03,428428.23,378921.77,WALTHER FAJARDO,KAM PYME,TOP 10,PRODUCTOS PERECEDEROS (NO CLASIFICADOS EN OTRA MCC),925589348
100000000095281,234c5152041ba6f3c797639cd29e87c9e2bee9fa483dd8506e48eb94712e7c02,20510761929,ASCHIERO VENTAS,AV ANGAMOS ESTE 1152-SURQUILLO-LIMA,LIMA,LIMA,SURQUILLO,-12.11325905,-77.01961107,430.0,1.0,ASCHIERO VENTAS,24364.0,37707.0,29634.0,35078.0,49809.0,33587.75,33054.0,GUILLERMO MERINO,KAM BDN,ESTABLE,TIENDAS DE PARTES Y ACCESORIOS AUTOMOTRICES.,998071662
100000000108110,20053ed46b336193635824bcd88e28801259ab72ac781df61e6f7166aefebd0d,20508324902,ROMPEOLAS 2,"PLAYA EL MALECÓN, LA PUNTA, PERU",CALLAO,CALLAO,LA PUNTA,-12.0739188,-77.1660412,0.0,0.0,GRUPO ORMEÑO,39795.3,28732.5,33043.0,36437.3,24654.1,46671.6,30447.1,ANABEL SANTAMARIA,KAM BDN,ESTABLE,RESTAURANTES Y VIDA NOCTURNA,998367345
100000000132394,062ff86bb815b11caf1acb18b93a359b8aed3998f5d07f4ed94893d95f7b014c,20100928419,FAR WEST,"URB CERCADO DE MIRAFLORES, MIRAFLORES, PERU",LIMA,LIMA,MIRAFLORES,-12.1204097,-77.0290995,54624.25,340.0,WEST FARGO S.A.,59002.22,95398.25,56457.86,46596.06,60740.5,76208.6,49683.65,CYNTHIA CARRION,KAM PYME,ESTABLE,CALZADO COMERCIAL,969432136
200000000185447,c92369bebbfcfd9b542b80b2491263e5480fda294966ba03afa66d682b12decb,20600129997,PARDOS F.,CA. SAN JOSE 574 CER.,LAMBAYEQUE,CHICLAYO,CHICLAYO,-6.77110356699995,-79.8407541509999,11052.0,504.0,PARDOS F.,739732.3,848726.52,752797.79,186707.93,0.0,0.0,0.0,LIZET GUEVARA,KAM BDN,CRECIMIENTO,"MINIMARKETS, BODEGAS, SUPERMERCADOS",960750109
200000000189788,83c57fa545d1d71418d9399cbaa9089a25e06313737201177f34169041aeca87,20601372674,XIMA HOTELS,"CA. CORONEL ODRIOZOLA 111, SAN ISIDRO LIMA 27, PERU",LIMA,LIMA,SAN ISIDRO,-12.0978395,-77.03222579999999,21327.806,148.0,XIMA HOTELS SAC,32356.4317,121434.4844,170347.0029,0.0,0.0,0.0,0.0,DANIEL LOVON,KAM PYME,PRECHURN,"HOTELES, MOTELES Y POSADAS",970447168
200000000193692,faa2e46fa6875232434b5af2172440ba98d1c8495765cd8699fa14951561a5bf,20600593685,LUCHA PLAZA LIMA NORTE,"AV. ALFREDO MENDIOLA 1400, LIMA 15102, PERU",LIMA,LIMA,SAN MARTIN DE PORRES,-12.0140184,-77.0597836,487721.57,10060.0,LA LUCHA,13930592.51,16645858.47,2145141.74,0.0,0.0,0.0,0.0,VIANUSSA CANO,KAM PYME,TOP 10,CLUBES MAYORISTAS,991032944
200000000206614,3b6d0cc282616bcb56d4154a2f8f9829eee79fb73ac3b8dcec45d21e29ef73f0,20547102674,RESTAURANTE DAMARIS CHEPECONDE,"AV. JOSÉ PARDO 399, MIRAFLORES 15074, PERU",LIMA,LIMA,MIRAFLORES,-12.1193162,-77.0326268,0.0,16.0,RESTAURANTE DAMARIS MIRAFLORES,224958.65,131975.65,148782.49,158846.44,112438.45,168702.6,165170.4,RICARDO TERAN,KAM PYME,CRECIMIENTO,PASTELERÍAS,922585015
200000000140515,9b41eb7f70fe59f43b8ca60ae03268f9b542b46649b3b967a100a979c50299b9,20612673862,PROYECTO PAZEA BELLAVISTA,AV. REPÚBLICA DE COLOMBIA 791 URB. JARDÍN,LIMA,LIMA,SAN ISIDRO,-12.098535888275,-77.026394156776,0.0,0.0,PROYECTO PAZEA - ETAPA 1,24440.36,67392.86,23000.0,59846.304,88609.64,32419.06,43648.648,ARIANA HUERTA,KAM BE,ESTABLE,TIEMPO COMPARTIDO,959699062
200000000159169,e0921512a968fe8ceb394d4ae5a65b79ca15398c8bcb8555803d61435577d87f,20601441242,GRUPO JOFRAN,AV. URUBAMBA 149 ASOC. SANTA ANITA BAJA,LIMA,LIMA,ATE,-12.057555781507,-76.96259342323,0.0,0.0,CORPORACION JOFRAN,60402.0,68239.0,57594.9,60276.0,64470.88,48102.3,57164.0,CYNTHIA CARRION,KAM PYME,ESTABLE,TIENDAS DE PARTES Y ACCESORIOS AUTOMOTRICES.,967769195
200000000160262,1ee2ba11d89399eaba790e463fc89de8ebdaff2cd084b61a48bd6f3818e36954,20603927517,COPECO 2,"AV. FEDERICO VILLARREAL 1798, TRUJILLO 13007, PERU",LA LIBERTAD,TRUJILLO,TRUJILLO,-8.1025689,-79.00280409999999,12339.05,509.0,CORESA 4,437068.51,619747.19,557247.74,501338.84,606248.93,545475.23,600695.18,VIANUSSA CANO,KAM PYME,TOP 10,"ESTACIONES DE SERVICIO (CON O SIN SERVICIOS DE ASISTENCIA) / GRIFOS, SERVICIO Y EXPENDIO DE GASOLINA",992271177
100000000153546,e419b66cfce67c494c45aba1148bac858a89f739002febc28f08e53da7135ad4,20498187936,EL TABLON SAC  CUSCO,"ALAMEDA PACHACUTEQ D-8, CUSCO 08002, PERU",CUSCO,CUSCO,SANTIAGO,-13.530529,-71.9689788,596632.65,10765.0,EL TABLÓN,1069.1,1899907.64,1777006.59,1681012.81,1567652.6,1882483.37,1901211.56,RODRIGO RIVERA,KAM BDN,TOP 10,RESTAURANTES Y VIDA NOCTURNA,988745623
200000000132767,43f9288cd06920755d4aac61aeae3482dfe64d160e33b5989ebe2a9e7423c639,20495031307,ROJAS MAS,CALLE ARICA N. 125,LIMA,LIMA,MIRAFLORES,-77.03602600097656,-12.118596076965332,86167.55,278.0,ROJAS MAS,36741.53,86167.55,76783.73,90350.3,85034.83,88477.03,36596.2,SALOMÉ PRO,KAM PYME,ESTABLE,"MINIMARKETS, BODEGAS, SUPERMERCADOS",955927348
200000000142319,9153e56bf84023717459bfd5ef1b07fa98d6cddac0ad183cc928da74f559a3a4,20100960495,LAVANDERIA SAORI - LINK DE PAGO,AV. GRIMALDO DEL SOLAR 175 URB. LEURO,LIMA,LIMA,MIRAFLORES,-12.123060519,-77.025873964,13875.1,129.0,LAVANDERIA SAORI,122929.43,132198.02,123908.82,127563.5986,121255.2,105735.9059,104068.9,RODRIGO RIVERA,KAM BDN,CRECIMIENTO,LAVANDERÍAS – FAMILIARES Y COMERCIALES,952345657
200000000159509,58be8155af8141251b9c6e1e6803e5405c8ea2d538ed8ef7e89a7746cc09b9cb,20131369639,MUNICIPALIDAD DISTRITAL BELLAVISTA,JR. CORONEL FRANCISCO BOLOGNESI 472 URB. BELLAVISTA,CALLAO,CALLAO,BELLAVISTA,-12.062469866239,-77.129230177225,1051323.08,1484.0,MUNICIPALIDAD DISTRITAL BELLAVISTA,339821.56,1051323.08,265147.67,420370.81,445574.27,806471.53,402521.24,ARIANA HUERTA,KAM BE,TOP 10,SERVICIOS GUBERNAMENTALES (NO CLASIFICADOS EN OTRO MCC),953248819
200000000178650,a6aaf266300cd24b699845808b97991a8386ff8e924f724ea8fabecdbcb578eb,20608049402,OAKBERRY MAGDALENA,JR. OLAVEGOYA 2026,LIMA,LIMA,JESUS MARIA,-12.0813348529999,-77.047846778,22372.4,689.0,OAKBERRY,25502.2,22372.4,21206.2,25809.0,3264.0,0.0,0.0,LORENA RODAS,KAM PYME,TOP 10,RESTAURANTES Y VIDA NOCTURNA,961906712
200000000189762,09da2920809215b427984f677acb1f7e20901ac9e9b2c9e0c1029fc319352b81,20362013802,UNIVERSAL GAS OFICINA 3,"JIRÓN FRANCISCO PIZARRO 860, TRUJILLO 13001, PERU",LA LIBERTAD,TRUJILLO,TRUJILLO,-8.1079835,-79.024216,22936.0,333.0,UNIGAS 1,252477.0,309102.97,209345.91,0.0,0.0,0.0,0.0,GUILLERMO MERINO,KAM BDN,ESTABLE,"ESTACIONES DE SERVICIO (CON O SIN SERVICIOS DE ASISTENCIA) / GRIFOS, SERVICIO Y EXPENDIO DE GASOLINA",940789815
200000000125106,975e394be7534be77d3f8aba41416a51ad43e1e3b01115d79a477bfdd4e5f787,20608066315,TECNOOFERTAS,CA. JAMAICA 145 URB. LOS LAURELES,LIMA,LIMA,CHORRILLOS,-77.02155303955078,-12.174734115600586,634.0,4.0,TECNOOFERTAS PERU,95621.95,186273.5,104684.0,112585.6,88709.25,92223.3,109514.7,MONICA VALENZUELA,KAM PYME,ESTABLE,TIENDAS DE ELECTRONICOS,947397761
200000000184366,3517740aa6947ad83b6e44b7a7ee133e15f55b63154536f14e9e54dcb18e0b85,20603707096,VALLE GASTRONOMICO SAC,"URUBAMBA, PERU",CUSCO,URUBAMBA,URUBAMBA,-13.3057641,-72.1156281,0.0,0.0,Valle Gastronomico SAC,42917.19,92795.21,57126.52,77897.18,99021.56,20878.05,0.0,RICARDO TERAN,KAM PYME,ESTABLE,PASTELERÍAS,998137686
200000000200333,81ddccd6387582f7b78bcb1fd1d26052ca960eaef267e826b5c00d594ade3ad2,10474677546,TARAPOTO ACCESORIOS,"AV. ALFONSO UGARTE, HUARAL 15201, PERU",LIMA,HUARAL,HUARAL,-11.4916573,-77.207007,39876.5,1581.0,NOVEDADES TV,74950.0,103995.6,0.0,0.0,0.0,0.0,0.0,JORGE CALLE,KAM PYME,ESTABLE,"MINIMARKETS, BODEGAS, SUPERMERCADOS",963939938
200000000115055,73721e796a3b9ae51b571ba853fda34c4ed786a6c0ecd8937ab816286fae6cf7,20508993065,GLF AUTOMOTRIZ MAGDALENA,AV. MARISCAL ANTONIO JOSE DE SUCRE 558 URB. ORBEA,LIMA,LIMA,MAGDALENA DEL MAR,-77.07122802734375,-12.093873023986816,0.0,0.0,G.L.F. AUTOMOTRIZ SAC,99436.4209,83337.0178,87303.6001,60108.7186,68666.0018,63895.153,72580.3587,LORENA RODAS,KAM PYME,CRECIMIENTO,TALLERES DE REPARACIÓN DE AUTOMÓVILES,999999999
200000000138694,54e77a292d3c132989afc25beda2d2c26ce93d5d2a78894d31546a191ff3458b,20500929252,VIDRIERÍA LIMATAMBO,"SAN HILARION, LIMA, PERU",LIMA,LIMA,SAN JUAN DE LURIGANCHO,-11.9957821,-77.0111048,33981.83,175.0,GE LIMATAMBO,1039548.25,1189380.59,1087453.57,952387.9572,1103931.19,925123.9994,885677.0994,RODRIGO RIVERA,KAM BDN,TOP 10,PRODUCTOS NO PERECEDEROS (NO CLASIFICADOS EN OTRA MCC),989800081
200000000190744,4fb28703bd1da144867eb8315df61f972e8e78c8e8e1db1b57b89514aaaccab2,20614573024,CHINA MALL BELLAVISTA,"JR. LIMA 160, NAZCA 11401, PERU",JUNIN,TARMA,TARMA,-11.4195074,-75.6871716,327839.86,5702.0,HONGYE BELLAVISTA S.A.C.,161701.1,327839.86,263513.34,0.0,0.0,0.0,0.0,JENIFER LLAMPASI,KAM PYME,ESTABLE,ALMACENES DE SUMINISTROS PARA EL HOGAR,925281558
200000000155831,1b5dc834da7cfe8048a302f11e22491ba9e6831be4bf4a65d4a0edbde292e22a,20608679864,POSHO CUSCO,"AV. DE LA CULTURA 2964, CUSCO 08003, PERU",CUSCO,CUSCO,CUSCO,-13.5276042,-71.9432752,0.0,0.0,POSHO CUSCO,41612.16,62940.62,54712.29,53945.85,67449.82,108400.72,122152.05,GARY AQUINO,KAM PYME,ESTABLE,PASTELERÍAS,980511666
200000000177454,dca9c79f1ec834e1006e5c51c37730e14dfb9fb5f6f55327f56ba0ad26e8a4a6,10070034650,EL ENCUENTRO OTANI,"JR. LOS TITANES, CHORRILLOS 15056, PERU",LIMA,LIMA,CHORRILLOS,-12.18105,-76.9969139,363443.54,1850.0,RESTAURANT CEVICHERIA EL ENCUENTRO OTANI,289332.2,363443.54,282212.7,267096.95,117850.23,0.0,0.0,JENIFER LLAMPASI,KAM PYME,TOP 10,RESTAURANTES Y VIDA NOCTURNA,999105326
200000000178633,60d3f2323caea0ab0026ec777fbb9f59af8eccc388b455a7f62844d09349ad0e,20601372917,HUIFU E.I.R.L.,"AV. ABANCAY 630, LIMA 15001, PERU",LIMA,LIMA,LIMA,-12.0522782,-77.0292699,161701.8,3825.0,CHIFA HUAMING,94508.0,161701.8,127743.8,106578.5,1104.0,0.0,0.0,ANDRES RAMIREZ,KAM PYME,ESTABLE,RESTAURANTES Y VIDA NOCTURNA,980797980
200000000191214,fdf71cc574dac6eeafc3099761dced8a2765f3b4883931d0b43b75c742416c2f,20610224882,FAST MARKET PORTALES,"JR. 2 DE MAYO 1398, IQUITOS 16001, PERU",LORETO,MAYNAS,IQUITOS,-3.7511025,-73.2590951,42757.1,3580.0,FAST MARKET FONAVI II CAJA 1,176466.8,441161.5,264859.4,0.0,0.0,0.0,0.0,DANIEL LOVON,KAM PYME,TOP 10,OTRAS TIENDAS DE COMIDA,943904783
200000000193708,faa2e46fa6875232434b5af2172440ba98d1c8495765cd8699fa14951561a5bf,20600593685,LUCHA PLAZA LIMA SUR,PRLG. PAS. DE LA REPÚBLICA 169,LIMA,LIMA,CHORRILLOS,-12.169660169780602,-77.01779591969954,310446.8,6971.0,LA LUCHA,13930592.51,16645858.47,2145141.74,0.0,0.0,0.0,0.0,VIANUSSA CANO,KAM PYME,TOP 10,CLUBES MAYORISTAS,991032944
200000000176091,13730d5262349410394e9e339541ef059982e595358643883374febf8c983712,20602371558,LA GRANJA,"JIRÓN CABO PANTOJA 417, IQUITOS 16002, PERU",LORETO,MAYNAS,IQUITOS,-3.7405324,-73.2486481,0.0,0.0,POLLERIA LA GRANJA,0.0,0.0,0.0,32154.0,6345.2,0.0,0.0,MONICA VALENZUELA,KAM PYME,ESTABLE,RESTAURANTES Y VIDA NOCTURNA,978286758
200000000180220,db6959b65723f759209b8d278956e419714e8284475f95189ff9fe080f308714,20607326003,VIA PACIFICO EXPRESS FERREÑAFE,AV. PAS. DE LA REPÚBLICA 857,LIMA,LIMA,LA VICTORIA,-12.067155531,-77.032424228,18701.0,124.0,VIA PACIFICO EXPRESS CHICLAYO,38699.0,62300.0,69346.0,68047.0,172.0,0.0,0.0,LUIS PEREZ,KAM BDN,ESTABLE,LÍNEAS DE AUTOBUSES,937532013
200000000186086,7de3aa9a0956e79611a7611ec20ed2041eee0cee92b03be1e7729dcaa3c39a27,20549064397,CAMILLE SOPHIE - FERIA,"AV. UNIVERSITARIA 3855, LIMA 15109, PERU",LIMA,LIMA,SAN MARTIN DE PORRES,-11.9892667,-77.0816372,0.0,0.0,CamilleSophie,73827.5832,183992.0723,86447.72,10602.99,0.0,0.0,0.0,GUILLERMO MERINO,KAM BDN,ESTABLE,"PRODUCTOS POR PIEZA, NOCIONES Y OTROS PRODUCTOS SECOS",946031931
